#----------------------------------------------------------------------------------
#
# APPLICATION : SAHARA 3.2.110
# DATE        : 04/07/2024 19:46:15
# PROJECT     : VH-III
#
#----------------------------------------------------------------------------------
~Version Information
VERS. 2.0 : CWLS LOG ASCII STANDARD - VERSION 2.0
WRAP.  NO : One line per depth step
~Well Information
#MNEMONIC   .UNIT                                           VALUE : DESCRIPTION
#----------------------------------------------------------------------------------
STRT        .M                                           200.0000 : START DEPTH
STOP        .M                                          1624.7500 : STOP DEPTH
STEP        .M                                           125.0000 : STEP
NULL        .                                           -999.2500 : NULL VALUE
COMP        .                                                     : COMPANY
WELL        .                                             PVH-941 : WELL NAME
FLD         .                                                     : FIELD
LOC         .                                                     : LOCATION
PROV        .                                                     : PROVINCE
SRVC        .                                                     : SERVICE COMPANY
DATE        .                                                     : DATE
UWI         .                                          5420002501 : UNIQUE WELL ID
XCOORD      .                                        2539607.2000 : SURFACE X
YCOORD      .                                        4929727.3600 : SURFACE Y
ELEV        .M                                           399.3400 : SURFACE ELEV
~Curve Information
#MNEMONIC   .UNIT                       API CODES           CURVE : DESCRIPTION
#----------------------------------------------------------------------------------
DEPTH       .M                        00 000 00 00                : CURVE # 19
DT          .US/FT                    00 000 00 00                : CURVE # 2
RHOB        .                         00 000 00 00                : CURVE # 3
BS          .                         00 000 00 00                : CURVE # 6
MBVIA       .FR.                      00 000 00 00                : CURVE # 7
CILD        .                         00 000 00 00                : CURVE # 10
HDRS        .OHM.M                    00 000 00 00                : CURVE # 11
MPHIA       .FR.                      00 000 00 00                : CURVE # 12
SPED        .MV                       00 000 00 00                : CURVE # 13
CALA        .                         00 000 00 00                : CURVE # 20
DPHI        .FR.                      00 000 00 00                : CURVE # 21
HDCN        .                         00 000 00 00                : CURVE # 22
LITHO_VHIII .                         00 000 00 00                : CURVE # 23
MFFIA       .FR.                      00 000 00 00                : CURVE # 24
PE          .                         00 000 00 00                : CURVE # 25
SPB         .MV                       00 000 00 00                : CURVE # 26
SPHI        .FR.                      00 000 00 00                : CURVE # 27
~A        DEPTH             DT           RHOB             BS          MBVIA           CILD           HDRS          MPHIA           SPED           CALA           DPHI           HDCN    LITHO_VHIII          MFFIA             PE            SPB           SPHI
# ...
       804.0000       100.4510         2.2856         8.5000      -999.2500       411.7090         2.4289      -999.2500        -1.0117         8.6764         0.2209       411.7094         1.0000      -999.2500         2.7255        79.9342         0.3612
       804.1250        99.8522         2.2830         8.5000      -999.2500       400.3893         2.4979      -999.2500        -1.2437         8.6621         0.2224       400.3851         1.0000      -999.2500         2.7200        79.7136         0.3586
       804.2500        99.3230         2.2778         8.5000      -999.2500       386.3228         2.5892      -999.2500        -1.5243         8.6536         0.2256       386.3170         1.0000      -999.2500         2.7109        79.4442         0.3541
       804.3750        98.4496         2.2695         8.5000      -999.2500       370.6922         2.6982      -999.2500        -1.9079         8.6707         0.2306       370.6895         1.0000      -999.2500         2.7022        79.0720         0.3496
       804.5000        98.4550         2.2667         8.5000      -999.2500       355.8339         2.8103      -999.2500        -2.3629         8.6707         0.2323       355.8281         1.0000      -999.2500         2.6711        78.6282         0.3439
       804.6250        99.2051         2.2589         8.5000      -999.2500       341.4235         2.9295      -999.2500        -2.9264         8.7006         0.2370       341.4231         1.0000      -999.2500         2.6191        78.0760         0.3301
       804.7500       100.0350         2.2467         8.5000      -999.2500       329.8686         3.0319      -999.2500        -3.2901         8.7163         0.2445       329.8667         1.0000      -999.2500         2.5796        77.7237         0.3210
       804.8750       100.9841         2.2459         8.5000      -999.2500       324.3650         3.0830      -999.2500        -3.4649         8.7234         0.2449       324.3666         1.0000      -999.2500         2.5749        77.5601         0.3197
       805.0000       101.7740         2.2415         8.5000      -999.2500       324.4752         3.0819      -999.2500        -3.6570         8.7163         0.2476       324.4799         1.0000      -999.2500         2.5328        77.3794         0.3228
       805.1250       102.4743         2.2328         8.5000      -999.2500       325.3939         3.0732      -999.2500        -4.1103         8.6963         0.2529       325.3968         1.0000      -999.2500         2.5405        76.9373         0.3234
       805.2500       102.9750         2.2244         8.5000      -999.2500       323.0578         3.0955      -999.2500        -4.9500         8.6507         0.2579       323.0591         1.0000      -999.2500         2.5539        76.1090         0.3309
       805.3750       103.4749         2.2255         8.5000      -999.2500       317.2444         3.1523      -999.2500        -5.8064         8.6051         0.2573       317.2476         1.0000      -999.2500         2.6048        75.2638         0.3439
       805.5000       103.9750         2.2246         8.5000      -999.2500       309.8661         3.2272      -999.2500        -6.6089         8.5682         0.2578       309.8661        -1.0000      -999.2500         2.6790        74.4727         0.3539
       805.6250       104.6053         2.2318         8.5000      -999.2500       303.2977         3.2972      -999.2500        -7.1867         8.5354         0.2535       303.2994        -1.0000      -999.2500         2.7347        73.9062         0.3576
       805.7500       104.6360         2.2341         8.5000      -999.2500       298.8730         3.3460      -999.2500        -7.7847         8.5083         0.2520       298.8744        -1.0000      -999.2500         2.7359        73.3195         0.3627
       805.8750       104.4868         2.2284         8.5000      -999.2500       297.0380         3.3666      -999.2500        -8.4425         8.4642         0.2555       297.0411        -1.0000      -999.2500         2.7061        72.6729         0.3674
       806.0000       104.2040         2.2164         8.5000      -999.2500       296.5423         3.3722      -999.2500        -8.9605         8.4200         0.2628       296.5407        -1.0000      -999.2500         2.6654        72.1663         0.3659
       806.1250       103.8880         2.2049         8.5000      -999.2500       295.0960         3.3888      -999.2500        -9.5798         8.3801         0.2698       295.0944         1.0000      -999.2500         2.5747        71.5583         0.3619
       806.2500       103.5295         2.1929         8.5000      -999.2500       292.5335         3.4185      -999.2500       -10.0135         8.3772         0.2770       292.5318         1.0000      -999.2500         2.4874        71.1360         0.3592
       806.3750       102.6859         2.1811         8.5000      -999.2500       290.7571         3.4393      -999.2500       -10.1983         8.3744         0.2842       290.7599        -1.0000      -999.2500         2.4010        70.9624         0.3570
       806.5000       101.7820         2.1744         8.5000      -999.2500       290.8076         3.4387      -999.2500       -10.0487         8.3744         0.2882       290.8113        -1.0000      -999.2500         2.3210        71.1233         0.3549
       806.6250       100.1032         2.1792         8.5000      -999.2500       291.5198         3.4303      -999.2500        -9.5477         8.3787         0.2853       291.5206        -1.0000      -999.2500         2.3019        71.6356         0.3529
       806.7500        98.2660         2.1927         8.5000      -999.2500       291.0118         3.4363      -999.2500        -9.1665         8.3773         0.2771       291.0118         1.0000      -999.2500         2.3497        72.0281         0.3490
       806.8750        97.1779         2.2156         8.5000      -999.2500       287.5296         3.4780      -999.2500        -8.6997         8.4143         0.2632       287.5260        -1.0000      -999.2500         2.4002        72.5062         0.3431
       807.0000        96.6080         2.2431         8.5000      -999.2500       280.4970         3.5651      -999.2500        -8.2728         8.4656         0.2466       280.4964        -1.0000      -999.2500         2.4183        72.9444         0.3298
       807.1250        95.7299         2.2601         8.5000      -999.2500       273.1474         3.6611      -999.2500        -7.7247         8.5596         0.2362       273.1487        -1.0000      -999.2500         2.4394        73.5039         0.3105
       807.2500        94.9910         2.2685         8.5000      -999.2500       276.1890         3.6219      -999.2500        -6.7931         8.6565         0.2312       276.1900        -1.0000      -999.2500         2.4464        74.4467         0.2973
       807.3750        98.0096         2.2470         8.5000      -999.2500       304.8019         3.2878      -999.2500        -5.4075         8.7277         0.2442       304.8020         1.0000      -999.2500         2.4623        75.8437         0.2953
       807.5000       103.7750         2.1959         8.5000      -999.2500       371.9408         2.6886      -999.2500        -3.7470         8.8302         0.2752       371.9394         1.0000      -999.2500         2.4416        77.5154         0.3090
       807.6250       109.5407         2.1611         8.5000      -999.2500       481.8586         2.0906      -999.2500        -2.6272         8.9756         0.2963       481.8610         1.0000      -999.2500         2.3983        78.6465         0.3584
       807.7500       115.3045         2.1246         8.5000      -999.2500       603.1043         1.6679      -999.2500        -2.0273         9.0895         0.3184       603.0995         1.0000      -999.2500         2.3798        79.2578         0.4257
       807.8750       121.0683         2.0966         8.5000      -999.2500       693.7596         1.4435      -999.2500        -1.6591         9.1991         0.3354       693.7503         1.0000      -999.2500         2.3741        79.6372         0.4835
