#----------------------------------------------------------------------------------
#
# APPLICATION : SAHARA 3.2.110
# DATE        : 04/07/2024 19:46:15
# PROJECT     : VH-III
#
#----------------------------------------------------------------------------------
~Version Information
VERS. 2.0 : CWLS LOG ASCII STANDARD - VERSION 2.0
WRAP.  NO : One line per depth step
~Well Information
#MNEMONIC   .UNIT                                           VALUE : DESCRIPTION
#----------------------------------------------------------------------------------
STRT        .M                                           200.0000 : START DEPTH
STOP        .M                                          1624.7500 : STOP DEPTH
STEP        .M                                           125.0000 : STEP
NULL        .                                           -999.2500 : NULL VALUE
COMP        .                                                     : COMPANY
WELL        .                                             PVH-941 : WELL NAME
FLD         .                                                     : FIELD
LOC         .                                                     : LOCATION
PROV        .                                                     : PROVINCE
SRVC        .                                                     : SERVICE COMPANY
DATE        .                                                     : DATE
UWI         .                                          5420002501 : UNIQUE WELL ID
XCOORD      .                                        2539607.2000 : SURFACE X
YCOORD      .                                        4929727.3600 : SURFACE Y
ELEV        .M                                           399.3400 : SURFACE ELEV
~Curve Information
#MNEMONIC   .UNIT                       API CODES           CURVE : DESCRIPTION
#----------------------------------------------------------------------------------
DEPTH       .M                        00 000 00 00                : CURVE # 19
DT          .US/FT                    00 000 00 00                : CURVE # 2
RHOB        .                         00 000 00 00                : CURVE # 3
BS          .                         00 000 00 00                : CURVE # 6
MBVIA       .FR.                      00 000 00 00                : CURVE # 7
CILD        .                         00 000 00 00                : CURVE # 10
HDRS        .OHM.M                    00 000 00 00                : CURVE # 11
MPHIA       .FR.                      00 000 00 00                : CURVE # 12
SPED        .MV                       00 000 00 00                : CURVE # 13
CALA        .                         00 000 00 00                : CURVE # 20
DPHI        .FR.                      00 000 00 00                : CURVE # 21
HDCN        .                         00 000 00 00                : CURVE # 22
LITHO_VHIII .                         00 000 00 00                : CURVE # 23
MFFIA       .FR.                      00 000 00 00                : CURVE # 24
PE          .                         00 000 00 00                : CURVE # 25
SPB         .MV                       00 000 00 00                : CURVE # 26
SPHI        .FR.                      00 000 00 00                : CURVE # 27
~A        DEPTH             DT           RHOB             BS          MBVIA           CILD           HDRS          MPHIA           SPED           CALA           DPHI           HDCN    LITHO_VHIII          MFFIA             PE            SPB           SPHI
# ...
      1164.0000       100.2980         2.2756         8.5000         0.0894       380.0836         2.6310         0.1687        -3.4483         8.6365         0.2269       380.0833         1.0000         0.0793         2.4072        77.5393         0.3357
      1164.1250       100.3380         2.2418         8.5000         0.0963       311.2729         3.2377         0.1840        -3.7806         8.5966         0.2474       311.2757         1.0000         0.0877         2.3157        77.1976         0.3340
      1164.2500       100.5385         2.2078         8.5000         0.1032       239.9643         4.2176         0.1993        -3.5901         8.5654         0.2680       239.9654         1.0000         0.0961         2.2154        77.3788         0.3335
      1164.3750       100.8064         2.1677         8.5000         0.1095       185.2274         5.4376         0.2129        -2.6489         8.5554         0.2922       185.2268         1.0000         0.1034         2.1609        78.3107         0.3336
      1164.5000       101.1190         2.1399         8.5000         0.1148       150.2923         6.6537         0.2240        -1.5645         8.5397         0.3092       150.2925         1.0000         0.1093         2.1277        79.3857         0.3356
      1164.6250       101.4316         2.1286         8.5000         0.1189       130.8053         7.6549         0.2328        -0.8721         8.5312         0.3160       130.8046         1.0000         0.1139         2.1318        80.0688         0.3401
      1164.7500       101.7510         2.1242         8.5000         0.1212       120.3165         8.3150         0.2368        -0.8112         8.5197         0.3186       120.3161         1.0000         0.1156         2.1413        80.1203         0.3449
      1164.8750       102.0817         2.1263         8.5000         0.1211       118.2656         8.4556         0.2348        -1.2012         8.4955         0.3174       118.2655         1.0000         0.1137         2.1784        79.7686         0.3483
      1165.0000       102.4120         2.1317         8.5000         0.1196       123.6675         8.0862         0.2295        -1.8430         8.4941         0.3141       123.6676         1.0000         0.1098         2.2017        79.1969         0.3510
      1165.1250       102.7421         2.1479         8.5000         0.1188       133.8989         7.4745         0.2246        -2.6849         8.5297         0.3043       133.8993         1.0000         0.1058         2.2671        78.4250         0.3522
      1165.2500       103.1200         2.1558         8.5000         0.1190       145.3295         6.8879         0.2209        -3.6405         8.5425         0.2995       145.3292        -1.0000         0.1018         2.2906        77.5394         0.3528
      1165.3750       103.5699         2.1622         8.5000         0.1201       156.3910         6.3979         0.2179        -4.5714         8.5383         0.2956       156.3911        -1.0000         0.0978         2.3193        76.6786         0.3528
      1165.5000       104.0200         2.1693         8.5000         0.1219       165.6013         6.0386         0.2158        -5.1304         8.5568         0.2913       165.6001        -1.0000         0.0939         2.3474        76.1896         0.3518
      1165.6250       103.9907         2.1729         8.5000         0.1248       171.6154         5.8274         0.2149        -5.3721         8.5340         0.2891       171.6148         1.0000         0.0901         2.3517        76.0181         0.3527
      1165.7500       102.9415         2.1689         8.5000         0.1279       175.4570         5.6997         0.2146        -5.6107         8.5369         0.2916       175.4582         1.0000         0.0867         2.3563        75.8494         0.3575
      1165.8750       102.0422         2.1647         8.5000         0.1299       178.6638         5.5973         0.2146        -5.8108         8.5397         0.2942       178.6641         1.0000         0.0847         2.3526        75.7193         0.3626
      1166.0000       101.8360         2.1679         8.5000         0.1313       182.5151         5.4790         0.2155        -5.9710         8.4998         0.2922       182.5158         1.0000         0.0842         2.3412        75.6292         0.3542
      1166.1250       101.8025         2.1647         8.5000         0.1329       187.9155         5.3223         0.2179        -6.1425         8.4898         0.2941       187.9161         1.0000         0.0850         2.3544        75.5277         0.3505
      1166.2500       101.8895         2.1613         8.5000         0.1333       194.3708         5.1458         0.2197        -6.2883         8.4770         0.2962       194.3704         1.0000         0.0864         2.3522        75.4519         0.3491
      1166.3750       102.1564         2.1603         8.5000         0.1324       200.0703         4.9986         0.2209        -6.3828         8.4984         0.2968       200.0699         1.0000         0.0885         2.3288        75.4275         0.3451
      1166.5000       102.4230         2.1550         8.5000         0.1319       202.2776         4.9437         0.2231        -6.2856         8.5397         0.3000       202.2796         1.0000         0.0912         2.3029        75.5947         0.3421
      1166.6250       102.5139         2.1530         8.5000         0.1326       198.0580         5.0499         0.2279        -5.8998         8.5098         0.3012       198.0577         1.0000         0.0953         2.2805        76.0506         0.3508
      1166.7500       101.9975         2.1485         8.5000         0.1337       190.0893         5.2625         0.2345        -5.5656         8.4998         0.3039       190.0887         1.0000         0.1008         2.2677        76.4548         0.3515
      1166.8750       101.5314         2.1357         8.5000         0.1342       182.3632         5.4845         0.2410        -5.3082         8.4770         0.3117       182.3631         1.0000         0.1068         2.2461        76.7822         0.3470
      1167.0000       101.0650         2.1292         8.5000         0.1343       177.5947         5.6308         0.2472        -5.0910         8.4086         0.3157       177.5961         1.0000         0.1129         2.2321        77.0695         0.3430
      1167.1250       100.9910         2.1309         8.5000         0.1343       175.9089         5.6848         0.2536        -4.9324         8.4029         0.3146       175.9101         1.0000         0.1193         2.2253        77.2981         0.3402
      1167.2500       101.0125         2.1334         8.5000         0.1331       174.8076         5.7206         0.2589        -4.7224         8.4229         0.3131       174.8089         1.0000         0.1258         2.2173        77.5781         0.3394
      1167.3750       101.1795         2.1326         8.5000         0.1285       173.1382         5.7758         0.2607        -4.5338         8.4343         0.3136       173.1390         1.0000         0.1322         2.2082        77.8368         0.3433
      1167.5000       101.3460         2.1316         8.5000         0.1207       170.2041         5.8753         0.2593        -4.1021         8.4941         0.3142       170.2036         1.0000         0.1386         2.1685        78.3385         0.3466
      1167.6250       101.5320         2.1348         8.5000         0.1137       164.1647         6.0934         0.2576        -3.2203         8.5212         0.3123       164.1637         1.0000         0.1439         2.1360        79.2903         0.3480
      1167.7500       101.4570         2.1313         8.5000         0.1095       155.0298         6.4549         0.2575        -2.3161         8.5511         0.3143       155.0299         1.0000         0.1480         2.0921        80.2645         0.3481
      1167.8750       101.1279         2.1289         8.5000         0.1077       145.7983         6.8616         0.2588        -1.5784         8.5639         0.3158       145.7992         1.0000         0.1511         2.0608        81.0723         0.3471
