#----------------------------------------------------------------------------------
#
# APPLICATION : SAHARA 3.2.110
# DATE        : 04/07/2024 19:46:17
# PROJECT     : VH-III
#
#----------------------------------------------------------------------------------
~Version Information
VERS. 2.0 : CWLS LOG ASCII STANDARD - VERSION 2.0
WRAP.  NO : One line per depth step
~Well Information
#MNEMONIC   .UNIT                                           VALUE : DESCRIPTION
#----------------------------------------------------------------------------------
STRT        .M                                           313.4750 : START DEPTH
STOP        .M                                          1692.9750 : STOP DEPTH
STEP        .M                                           125.0000 : STEP
NULL        .                                           -999.2500 : NULL VALUE
COMP        .                                                     : COMPANY
WELL        .                                            PVH-1007 : WELL NAME
FLD         .                                                     : FIELD
LOC         .                                                     : LOCATION
PROV        .                                                     : PROVINCE
SRVC        .                                                     : SERVICE COMPANY
DATE        .                                                     : DATE
UWI         .                                          5420000089 : UNIQUE WELL ID
XCOORD      .                                        2539987.0400 : SURFACE X
YCOORD      .                                        4929711.0400 : SURFACE Y
ELEV        .M                                           417.7500 : SURFACE ELEV
~Curve Information
#MNEMONIC   .UNIT                       API CODES           CURVE : DESCRIPTION
#----------------------------------------------------------------------------------
DEPTH       .M                        00 000 00 00                : CURVE # 19
HMRS        .OHM.M                    00 000 00 00                : CURVE # 2
SPED        .MV                       00 000 00 00                : CURVE # 4
CALA        .                         00 000 00 00                : CURVE # 5
MBVIA       .FR.                      00 000 00 00                : CURVE # 6
HDCN        .                         00 000 00 00                : CURVE # 11
HT90        .OHM.M                    00 000 00 00                : CURVE # 12
MPHIA       .FR.                      00 000 00 00                : CURVE # 13
CILD        .                         00 000 00 00                : CURVE # 20
HDRS        .OHM.M                    00 000 00 00                : CURVE # 21
HT24        .OHM.M                    00 000 00 00                : CURVE # 22
LITHO_VHIII .                         00 000 00 00                : CURVE # 23
MFFIA       .FR.                      00 000 00 00                : CURVE # 24
SPB         .MV                       00 000 00 00                : CURVE # 25
~A        DEPTH           HMRS           SPED           CALA          MBVIA           HDCN           HT90          MPHIA           CILD           HDRS           HT24    LITHO_VHIII          MFFIA            SPB
# ...
       498.7250         1.9634        -2.3722         8.7829      -999.2500       494.6878         2.0215      -999.2500       494.6969         2.0215         1.9193      -999.2500      -999.2500        77.0092
       498.8500         2.0057        -2.5036         8.7787      -999.2500       484.7296         2.0634      -999.2500       484.7314         2.0634         1.9618      -999.2500      -999.2500        76.8778
       498.9750         2.0855        -2.8011         8.7783      -999.2500       465.1445         2.1505      -999.2500       465.1400         2.1505         2.0362      -999.2500      -999.2500        76.5803
       499.1000         2.1866        -3.3790         8.7507      -999.2500       443.5215         2.2547      -999.2500       443.5180         2.2547         2.1349      -999.2500      -999.2500        76.0024
       499.2250         2.2975        -4.4770         8.7365      -999.2500       425.3757         2.3514      -999.2500       425.3718         2.3513         2.2563      -999.2500      -999.2500        74.9040
       499.3500         2.4268        -6.1386         8.7396      -999.2500       407.0773         2.4575      -999.2500       407.0810         2.4575         2.4029      -999.2500      -999.2500        73.2426
       499.4750         2.5895        -8.1208         8.7651      -999.2500       383.8288         2.6067      -999.2500       383.8256         2.6067         2.5759      -999.2500      -999.2500        71.2607
       499.6000         2.7827       -10.2309         8.7605      -999.2500       355.4723         2.8132      -999.2500       355.4671         2.8132         2.7588      -999.2500      -999.2500        69.1506
       499.7250         2.9580       -12.2355         8.7218      -999.2500       331.5752         3.0167      -999.2500       331.5730         3.0167         2.9127      -999.2500      -999.2500        67.1456
       499.8500         3.0502       -13.9411         8.6768      -999.2500       322.0143         3.1055      -999.2500       322.0154         3.1055         3.0074      -999.2500      -999.2500        65.4401
       499.9750         3.0416       -15.3484         8.6370      -999.2500       326.1775         3.0660      -999.2500       326.1764         3.0660         3.0224      -999.2500      -999.2500        64.0330
       500.1000         2.9801       -16.4551         8.6051      -999.2500       335.4650         2.9809      -999.2500       335.4691         2.9809         2.9794      -999.2500      -999.2500        62.9263
       500.2250         2.9497       -17.2159         8.5772      -999.2500       338.3328         2.9557      -999.2500       338.3309         2.9557         2.9450      -999.2500      -999.2500        62.1653
       500.3500         2.9808       -17.7218         8.5525      -999.2500       332.5712         3.0073      -999.2500       332.5683         3.0073         2.9599      -999.2500      -999.2500        61.6596
       500.4750         3.0459       -17.9092         8.5377      -999.2500       323.5464         3.0910      -999.2500       323.5463         3.0910         3.0107      -999.2500      -999.2500        61.4722
       500.6000         3.0930       -17.9844         8.5397      -999.2500       318.5220         3.1395      -999.2500       318.5221         3.1395         3.0567      -999.2500      -999.2500        61.3970
       500.7250         3.0917       -18.2205         8.5502      -999.2500       320.9363         3.1159      -999.2500       320.9393         3.1159         3.0725      -999.2500      -999.2500        61.1609
       500.8500         3.0841       -18.3231         8.5413      -999.2500       324.5813         3.0809      -999.2500       324.5837         3.0809         3.0867      -999.2500      -999.2500        61.0584
       500.9750         3.1047       -18.1653         8.5098      -999.2500       324.9998         3.0769      -999.2500       325.0001         3.0769         3.1273      -999.2500      -999.2500        61.2161
       501.1000         3.1470       -17.7698         8.4858      -999.2500       323.0999         3.0950      -999.2500       323.1018         3.0950         3.1898      -999.2500      -999.2500        61.6116
       501.2250         3.1665       -16.9538         8.4977      -999.2500       322.3779         3.1019      -999.2500       322.3809         3.1019         3.2200      -999.2500      -999.2500        62.4279
       501.3500         3.1258       -15.6635         8.5281      -999.2500       324.9029         3.0779      -999.2500       324.9033         3.0779         3.1653      -999.2500      -999.2500        63.7180
       501.4750         3.0036       -13.6782         8.5634      -999.2500       333.4309         2.9995      -999.2500       333.4312         2.9995         3.0070      -999.2500      -999.2500        65.7032
       501.6000         2.8079       -11.2953         8.5820      -999.2500       351.5576         2.8445      -999.2500       351.5556         2.8445         2.7794      -999.2500      -999.2500        68.0861
       501.7250         2.6021        -9.0632         8.5806      -999.2500       378.4176         2.6440      -999.2500       378.4240         2.6440         2.5694      -999.2500      -999.2500        70.3186
       501.8500         2.4704        -7.6402         8.5745      -999.2500       399.5110         2.5035      -999.2500       399.5175         2.5035         2.4445      -999.2500      -999.2500        71.7414
       501.9750         2.4550        -7.1145         8.5814      -999.2500       401.8596         2.4885      -999.2500       401.8603         2.4885         2.4288      -999.2500      -999.2500        72.2669
       502.1000         2.5495        -7.2484         8.5987      -999.2500       384.6028         2.6001      -999.2500       384.6006         2.6001         2.5104      -999.2500      -999.2500        72.1330
       502.2250         2.6881        -8.4552         8.5803      -999.2500       362.9380         2.7559      -999.2500       362.9387         2.7558         2.6363      -999.2500      -999.2500        70.9258
       502.3500         2.7761       -10.6423         8.5546      -999.2500       352.5459         2.8366      -999.2500       352.5466         2.8366         2.7296      -999.2500      -999.2500        68.7388
       502.4750         2.8073       -13.3342         8.5363      -999.2500       352.0310         2.8407      -999.2500       352.0300         2.8407         2.7814      -999.2500      -999.2500        66.0472
       502.6000         2.8377       -15.8762         8.5331      -999.2500       351.2104         2.8473      -999.2500       351.2099         2.8473         2.8301      -999.2500      -999.2500        63.5052
       502.7250         2.9130       -17.4115         8.5136      -999.2500       342.1139         2.9235      -999.2500       342.1155         2.9234         2.9047      -999.2500      -999.2500        61.9697
       502.8500         3.0000       -18.3194         8.4978      -999.2500       330.4365         3.0268      -999.2500       330.4363         3.0268         2.9788      -999.2500      -999.2500        61.0620
       502.9750         3.0487       -18.7023         8.5012      -999.2500       323.6076         3.0903      -999.2500       323.6048         3.0903         3.0164      -999.2500      -999.2500        60.6791
       503.1000         3.0232       -18.6179         8.5151      -999.2500       326.1030         3.0665      -999.2500       326.1047         3.0665         2.9894      -999.2500      -999.2500        60.7635
       503.2250         2.9123       -17.8493         8.5010      -999.2500       338.2404         2.9572      -999.2500       338.2390         2.9572         2.8773      -999.2500      -999.2500        61.5325
       503.3500         2.7554       -15.8201         8.4588      -999.2500       355.0995         2.8174      -999.2500       355.0995         2.8174         2.7078      -999.2500      -999.2500        63.5617
