#----------------------------------------------------------------------------------
#
# APPLICATION : SAHARA 3.2.110
# DATE        : 04/07/2024 19:46:15
# PROJECT     : VH-III
#
#----------------------------------------------------------------------------------
~Version Information
VERS. 2.0 : CWLS LOG ASCII STANDARD - VERSION 2.0
WRAP.  NO : One line per depth step
~Well Information
#MNEMONIC   .UNIT                                           VALUE : DESCRIPTION
#----------------------------------------------------------------------------------
STRT        .M                                           200.0000 : START DEPTH
STOP        .M                                          1624.7500 : STOP DEPTH
STEP        .M                                           125.0000 : STEP
NULL        .                                           -999.2500 : NULL VALUE
COMP        .                                                     : COMPANY
WELL        .                                             PVH-941 : WELL NAME
FLD         .                                                     : FIELD
LOC         .                                                     : LOCATION
PROV        .                                                     : PROVINCE
SRVC        .                                                     : SERVICE COMPANY
DATE        .                                                     : DATE
UWI         .                                          5420002501 : UNIQUE WELL ID
XCOORD      .                                        2539607.2000 : SURFACE X
YCOORD      .                                        4929727.3600 : SURFACE Y
ELEV        .M                                           399.3400 : SURFACE ELEV
~Curve Information
#MNEMONIC   .UNIT                       API CODES           CURVE : DESCRIPTION
#----------------------------------------------------------------------------------
DEPTH       .M                        00 000 00 00                : CURVE # 19
DT          .US/FT                    00 000 00 00                : CURVE # 2
RHOB        .                         00 000 00 00                : CURVE # 3
BS          .                         00 000 00 00                : CURVE # 6
MBVIA       .FR.                      00 000 00 00                : CURVE # 7
CILD        .                         00 000 00 00                : CURVE # 10
HDRS        .OHM.M                    00 000 00 00                : CURVE # 11
MPHIA       .FR.                      00 000 00 00                : CURVE # 12
SPED        .MV                       00 000 00 00                : CURVE # 13
CALA        .                         00 000 00 00                : CURVE # 20
DPHI        .FR.                      00 000 00 00                : CURVE # 21
HDCN        .                         00 000 00 00                : CURVE # 22
LITHO_VHIII .                         00 000 00 00                : CURVE # 23
MFFIA       .FR.                      00 000 00 00                : CURVE # 24
PE          .                         00 000 00 00                : CURVE # 25
SPB         .MV                       00 000 00 00                : CURVE # 26
SPHI        .FR.                      00 000 00 00                : CURVE # 27
~A        DEPTH             DT           RHOB             BS          MBVIA           CILD           HDRS          MPHIA           SPED           CALA           DPHI           HDCN    LITHO_VHIII          MFFIA             PE            SPB           SPHI
# ...
       716.0000       102.8830      -999.2500         8.5000      -999.2500       259.3495         3.8558      -999.2500       -15.9377         8.4542      -999.2500       259.3522        -1.0000      -999.2500      -999.2500        64.9901      -999.2500
       716.1250       103.1180      -999.2500         8.5000      -999.2500       266.1199         3.7589      -999.2500       -14.2201         8.5183      -999.2500       266.1194        -1.0000      -999.2500      -999.2500        66.7077      -999.2500
       716.2500       103.2730      -999.2500         8.5000      -999.2500       282.8532         3.5385      -999.2500       -12.0242         8.5255      -999.2500       282.8537         1.0000      -999.2500      -999.2500        68.9036      -999.2500
       716.3750       102.5124      -999.2500         8.5000      -999.2500       304.2459         3.2889      -999.2500        -9.8419         8.5454      -999.2500       304.2440         1.0000      -999.2500      -999.2500        71.0859      -999.2500
       716.5000       101.1600      -999.2500         8.5000      -999.2500       318.8369         3.1364      -999.2500        -8.4766         8.5226      -999.2500       318.8323         1.0000      -999.2500      -999.2500        72.4512      -999.2500
       716.6250        99.8083      -999.2500         8.5000      -999.2500       313.0163         3.1960      -999.2500        -8.4920         8.5098      -999.2500       313.0181         1.0000      -999.2500      -999.2500        72.4358      -999.2500
       716.7500        98.4565      -999.2500         8.5000      -999.2500       292.0489         3.4283      -999.2500        -9.1681         8.4371      -999.2500       292.0486         1.0000      -999.2500      -999.2500        71.7597      -999.2500
       716.8750        97.1047      -999.2500         8.5000      -999.2500       266.2932         3.7593      -999.2500        -9.6811         8.3730      -999.2500       266.2951        -1.0000      -999.2500      -999.2500        71.2467      -999.2500
       717.0000        95.7530      -999.2500         8.5000      -999.2500       244.2599         4.0940      -999.2500        -9.8082         8.3858      -999.2500       244.2624        -1.0000      -999.2500      -999.2500        71.1196      -999.2500
       717.1250        94.3906      -999.2500         8.5000      -999.2500       232.7090         4.2973      -999.2500        -9.8009         8.3773      -999.2500       232.7108        -1.0000      -999.2500      -999.2500        71.1269      -999.2500
       717.2500        94.7815      -999.2500         8.5000      -999.2500       233.7996         4.2780      -999.2500        -9.7622         8.4200      -999.2500       233.8009        -1.0000      -999.2500      -999.2500        71.1656      -999.2500
       717.3750        97.8591      -999.2500         8.5000      -999.2500       250.2523         3.9998      -999.2500        -9.4277         8.4713      -999.2500       250.2520        -1.0000      -999.2500      -999.2500        71.5001      -999.2500
       717.5000       100.9380      -999.2500         8.5000      -999.2500       284.4789         3.5152      -999.2500        -8.0183         8.5112      -999.2500       284.4791        -1.0000      -999.2500      -999.2500        72.9095      -999.2500
       717.6250       104.0171      -999.2500         8.5000      -999.2500       336.2618         2.9832      -999.2500        -5.5548         8.5411      -999.2500       336.2646        -1.0000      -999.2500      -999.2500        75.3730      -999.2500
       717.7500       107.0950      -999.2500         8.5000      -999.2500       389.2496         2.5755      -999.2500        -3.1100         8.5454      -999.2500       389.2528         1.0000      -999.2500      -999.2500        77.8177      -999.2500
       717.8750       107.9961      -999.2500         8.5000      -999.2500       426.5578         2.3458      -999.2500        -1.5322         8.5582      -999.2500       426.5569         1.0000      -999.2500      -999.2500        79.3956      -999.2500
       718.0000       107.3780      -999.2500         8.5000      -999.2500       436.6621         2.2901      -999.2500        -0.9231         8.5852      -999.2500       436.6610         1.0000      -999.2500      -999.2500        80.0047      -999.2500
       718.1250       106.7439      -999.2500         8.5000      -999.2500       417.4022         2.3973      -999.2500        -0.9158         8.5966      -999.2500       417.4016         1.0000      -999.2500      -999.2500        80.0120      -999.2500
       718.2500       105.5620      -999.2500         8.5000      -999.2500       385.4319         2.5979      -999.2500        -1.2487         8.6394      -999.2500       385.4305         1.0000      -999.2500      -999.2500        79.6790      -999.2500
       718.3750       103.7097      -999.2500         8.5000      -999.2500       353.2650         2.8332      -999.2500        -1.6973         8.6522      -999.2500       353.2641         1.0000      -999.2500      -999.2500        79.2305      -999.2500
       718.5000       102.7980      -999.2500         8.5000      -999.2500       332.0163         3.0119      -999.2500        -2.0660         8.6080      -999.2500       332.0156         1.0000      -999.2500      -999.2500        78.8618      -999.2500
       718.6250       101.6170      -999.2500         8.5000      -999.2500       331.1559         3.0200      -999.2500        -2.0402         8.5739      -999.2500       331.1576         1.0000      -999.2500      -999.2500        78.8876      -999.2500
       718.7500       101.7770      -999.2500         8.5000      -999.2500       342.3981         2.9213      -999.2500        -1.9971         8.5739      -999.2500       342.3949         1.0000      -999.2500      -999.2500        78.9306      -999.2500
       718.8750       102.2070      -999.2500         8.5000      -999.2500       351.8819         2.8420      -999.2500        -2.2885         8.5525      -999.2500       351.8828         1.0000      -999.2500      -999.2500        78.6393      -999.2500
       719.0000       102.5570      -999.2500         8.5000      -999.2500       348.8453         2.8666      -999.2500        -2.8430         8.5682      -999.2500       348.8468         1.0000      -999.2500      -999.2500        78.0848      -999.2500
       719.1250       102.9070      -999.2500         8.5000      -999.2500       336.4131         2.9729      -999.2500        -3.3245         8.5923      -999.2500       336.4143         1.0000      -999.2500      -999.2500        77.6033      -999.2500
       719.2500       103.2575      -999.2500         8.5000      -999.2500       329.3383         3.0364      -999.2500        -3.3716         8.5795      -999.2500       329.3396         1.0000      -999.2500      -999.2500        77.5563      -999.2500
       719.3750       103.6230      -999.2500         8.5000      -999.2500       333.4895         2.9988      -999.2500        -3.0327         8.5881      -999.2500       333.4933         1.0000      -999.2500      -999.2500        77.8951      -999.2500
       719.5000       103.9980      -999.2500         8.5000      -999.2500       346.2964         2.8877      -999.2500        -2.5681         8.5852      -999.2500       346.2953         1.0000      -999.2500      -999.2500        78.3597      -999.2500
       719.6250       104.3730      -999.2500         8.5000      -999.2500       359.6119         2.7810      -999.2500        -2.2535         8.5539      -999.2500       359.6075         1.0000      -999.2500      -999.2500        78.6743      -999.2500
       719.7500       104.3575      -999.2500         8.5000      -999.2500       364.1081         2.7465      -999.2500        -2.4935         8.5625      -999.2500       364.1034         1.0000      -999.2500      -999.2500        78.4343      -999.2500
       719.8750       103.6064      -999.2500         8.5000      -999.2500       352.3476         2.8390      -999.2500        -3.5951         8.5368      -999.2500       352.3487         1.0000      -999.2500      -999.2500        77.3327      -999.2500
