#----------------------------------------------------------------------------------
#
# APPLICATION : SAHARA 3.2.110
# DATE        : 04/07/2024 19:46:15
# PROJECT     : VH-III
#
#----------------------------------------------------------------------------------
~Version Information
VERS. 2.0 : CWLS LOG ASCII STANDARD - VERSION 2.0
WRAP.  NO : One line per depth step
~Well Information
#MNEMONIC   .UNIT                                           VALUE : DESCRIPTION
#----------------------------------------------------------------------------------
STRT        .M                                           200.0000 : START DEPTH
STOP        .M                                          1624.7500 : STOP DEPTH
STEP        .M                                           125.0000 : STEP
NULL        .                                           -999.2500 : NULL VALUE
COMP        .                                                     : COMPANY
WELL        .                                             PVH-941 : WELL NAME
FLD         .                                                     : FIELD
LOC         .                                                     : LOCATION
PROV        .                                                     : PROVINCE
SRVC        .                                                     : SERVICE COMPANY
DATE        .                                                     : DATE
UWI         .                                          5420002501 : UNIQUE WELL ID
XCOORD      .                                        2539607.2000 : SURFACE X
YCOORD      .                                        4929727.3600 : SURFACE Y
ELEV        .M                                           399.3400 : SURFACE ELEV
~Curve Information
#MNEMONIC   .UNIT                       API CODES           CURVE : DESCRIPTION
#----------------------------------------------------------------------------------
DEPTH       .M                        00 000 00 00                : CURVE # 19
DT          .US/FT                    00 000 00 00                : CURVE # 2
RHOB        .                         00 000 00 00                : CURVE # 3
BS          .                         00 000 00 00                : CURVE # 6
MBVIA       .FR.                      00 000 00 00                : CURVE # 7
CILD        .                         00 000 00 00                : CURVE # 10
HDRS        .OHM.M                    00 000 00 00                : CURVE # 11
MPHIA       .FR.                      00 000 00 00                : CURVE # 12
SPED        .MV                       00 000 00 00                : CURVE # 13
CALA        .                         00 000 00 00                : CURVE # 20
DPHI        .FR.                      00 000 00 00                : CURVE # 21
HDCN        .                         00 000 00 00                : CURVE # 22
LITHO_VHIII .                         00 000 00 00                : CURVE # 23
MFFIA       .FR.                      00 000 00 00                : CURVE # 24
PE          .                         00 000 00 00                : CURVE # 25
SPB         .MV                       00 000 00 00                : CURVE # 26
SPHI        .FR.                      00 000 00 00                : CURVE # 27
~A        DEPTH             DT           RHOB             BS          MBVIA           CILD           HDRS          MPHIA           SPED           CALA           DPHI           HDCN    LITHO_VHIII          MFFIA             PE            SPB           SPHI
# ...
      1344.0000       113.1890         2.2387         8.5000         0.0035       615.2332         1.6254         0.0094        -1.2201         9.3259         0.2493       615.2189         1.0000         0.0059         2.4194        80.1687         0.4166
      1344.1250       111.8424         2.2649         8.5000         0.0024       614.0576         1.6285         0.0077        -1.2664         9.2888         0.2334       614.0549         1.0000         0.0052         2.4427        80.1120         0.4280
      1344.2500       110.4970         2.2742         8.5000         0.0017       607.1071         1.6472         0.0063        -1.2470         9.2404         0.2278       607.0984         1.0000         0.0046         2.4966        80.1209         0.4269
      1344.3750       109.1516         2.2748         8.5000         0.0013       597.4739         1.6738         0.0051        -1.1889         9.1749         0.2274       597.4825         1.0000         0.0038         2.5331        80.1685         0.4191
      1344.5000       107.8060         2.2886         8.5000         0.0009       586.3383         1.7055         0.0041        -1.1593         9.1664         0.2190       586.3359         1.0000         0.0032         2.5366        80.1876         0.4114
      1344.6250       106.4594         2.2934         8.5000         0.0006       574.8597         1.7396         0.0036        -1.0969         9.2190         0.2161       574.8673         1.0000         0.0029         2.5591        80.2395         0.4009
      1344.7500       105.1140         2.3075         8.5000         0.0005       566.8380         1.7642         0.0032        -1.0746         9.2119         0.2075       566.8436         1.0000         0.0027         2.5559        80.2513         0.3916
      1344.8750       103.7686         2.3220         8.5000         0.0003       559.6041         1.7870         0.0028        -1.0437         9.1877         0.1988       559.6166         1.0000         0.0024         2.5572        80.2718         0.3881
      1345.0000       102.4220         2.3314         8.5000         0.0003       547.6751         1.8259         0.0023        -0.9041         9.1664         0.1931       547.6792         1.0000         0.0021         2.5846        80.4009         0.3807
      1345.1250       101.0764         2.3421         8.5000         0.0002       527.5007         1.8962         0.0019        -0.8074         9.1023         0.1866       527.4960         1.0000         0.0017         2.5617        80.4871         0.3658
      1345.2500        99.7305         2.3527         8.5000         0.0002       503.5508         1.9866         0.0018        -0.6966         9.0552         0.1802       503.5482         1.0000         0.0016         2.5542        80.5875         0.3492
      1345.3750        98.3853         2.3524         8.5000         0.0003       480.9975         2.0795         0.0020        -0.5042         9.0595         0.1804       480.9910         1.0000         0.0018         2.5266        80.7694         0.3314
      1345.5000        96.9990         2.3511         8.5000         0.0003       464.2957         2.1538         0.0023        -0.3402         9.0695         0.1811       464.3015         1.0000         0.0020         2.5021        80.9229         0.3175
      1345.6250        99.1670         2.3522         8.5000         0.0003       453.0676         2.2073         0.0024        -0.2607         9.0724         0.1805       453.0661         1.0000         0.0021         2.5438        80.9919         0.3131
      1345.7500       101.3345         2.3580         8.5000         0.0003       448.0285         2.2320         0.0023        -0.2555         9.0923         0.1770       448.0289         1.0000         0.0020         2.5925        80.9866         0.3134
      1345.8750       103.5020         2.3613         8.5000         0.0003       452.7382         2.2089         0.0022        -0.3575         9.1551         0.1749       452.7389         1.0000         0.0019         2.6420        80.8742         0.3198
      1346.0000       105.6700         2.3659         8.5000         0.0002       468.3841         2.1350         0.0020        -0.5939         9.2119         0.1722       468.3738         1.0000         0.0018         2.7390        80.6273         0.3301
      1346.1250       107.8380         2.3602         8.5000         0.0002       492.2285         2.0322         0.0018        -0.9202         9.3245         0.1757       492.2306         1.0000         0.0016         2.8023        80.2905         0.3424
      1346.2500       110.0050         2.3475         8.5000         0.0002       515.8776         1.9391         0.0017        -1.2579         9.3886         0.1834       515.8817         1.0000         0.0015         2.8899        79.9424         0.3611
      1346.3750       112.1720         2.3320         8.5000         0.0002       540.1996         1.8517         0.0018        -1.4458         9.3758         0.1927       540.2074         1.0000         0.0016         2.9501        79.7440         0.3837
      1346.5000       114.3400         2.3175         8.5000         0.0002       564.6527         1.7710         0.0019        -1.6593         9.4056         0.2015       564.6504         1.0000         0.0017         2.9898        79.5200         0.4044
      1346.6250       115.3457         2.3079         8.5000         0.0002       579.8260         1.7247         0.0018        -1.7784         9.3715         0.2073       579.8367         1.0000         0.0016         2.9812        79.3904         0.4241
      1346.7500       112.1095         2.3098         8.5000         0.0002       588.3524         1.6997         0.0015        -1.8890         9.4342         0.2062       588.3457         1.0000         0.0014         2.9719        79.2693         0.4426
      1346.8750       108.8733         2.3172         8.5000         0.0001       591.7526         1.6899         0.0012        -1.8367         9.4711         0.2017       591.7544         1.0000         0.0011         2.9395        79.3112         0.4514
      1347.0000       105.6350         2.3280         8.5000         0.0001       586.7167         1.7044         0.0010        -1.6385         9.4284         0.1952       586.7043         1.0000         0.0009         2.9382        79.4989         0.4468
      1347.1250       102.3967         2.3488         8.5000         0.0001       564.6362         1.7718         0.0009        -1.1745         9.3387         0.1826       564.6226         1.0000         0.0008         2.8885        79.9524         0.4273
      1347.2500        99.1605         2.3612         8.5000         0.0001       529.5206         1.8901         0.0008        -0.6822         9.2147         0.1750       529.5194         1.0000         0.0007         2.8294        80.4342         0.3939
      1347.3750        95.9243         2.3659         8.5000         0.0002       494.1716         2.0247         0.0010        -0.2452         9.1593         0.1722       494.1760         1.0000         0.0009         2.7605        80.8607         0.3547
      1347.5000        92.6060         2.3742         8.5000         0.0003       466.3092         2.1445         0.0015         0.1716         9.1664         0.1671       466.3048         1.0000         0.0012         2.7354        81.2671         0.3186
      1347.6250        94.7603         2.3655         8.5000         0.0004       452.6976         2.2090         0.0019         0.3383         9.1522         0.1724       452.7032         1.0000         0.0015         2.7178        81.4233         0.2940
      1347.7500        96.9140         2.3585         8.5000         0.0004       451.1044         2.2168         0.0019         0.4736         9.1607         0.1767       451.1084         1.0000         0.0015         2.7004        81.5481         0.2821
      1347.8750        99.0677         2.3598         8.5000         0.0002       458.3626         2.1818         0.0016         0.4932         9.1522         0.1759       458.3673         1.0000         0.0014         2.6934        81.5572         0.2855
