#----------------------------------------------------------------------------------
#
# APPLICATION : SAHARA 3.2.110
# DATE        : 04/07/2024 19:46:17
# PROJECT     : VH-III
#
#----------------------------------------------------------------------------------
~Version Information
VERS. 2.0 : CWLS LOG ASCII STANDARD - VERSION 2.0
WRAP.  NO : One line per depth step
~Well Information
#MNEMONIC   .UNIT                                           VALUE : DESCRIPTION
#----------------------------------------------------------------------------------
STRT        .M                                           313.4750 : START DEPTH
STOP        .M                                          1692.9750 : STOP DEPTH
STEP        .M                                           125.0000 : STEP
NULL        .                                           -999.2500 : NULL VALUE
COMP        .                                                     : COMPANY
WELL        .                                            PVH-1007 : WELL NAME
FLD         .                                                     : FIELD
LOC         .                                                     : LOCATION
PROV        .                                                     : PROVINCE
SRVC        .                                                     : SERVICE COMPANY
DATE        .                                                     : DATE
UWI         .                                          5420000089 : UNIQUE WELL ID
XCOORD      .                                        2539987.0400 : SURFACE X
YCOORD      .                                        4929711.0400 : SURFACE Y
ELEV        .M                                           417.7500 : SURFACE ELEV
~Curve Information
#MNEMONIC   .UNIT                       API CODES           CURVE : DESCRIPTION
#----------------------------------------------------------------------------------
DEPTH       .M                        00 000 00 00                : CURVE # 19
HMRS        .OHM.M                    00 000 00 00                : CURVE # 2
SPED        .MV                       00 000 00 00                : CURVE # 4
CALA        .                         00 000 00 00                : CURVE # 5
MBVIA       .FR.                      00 000 00 00                : CURVE # 6
HDCN        .                         00 000 00 00                : CURVE # 11
HT90        .OHM.M                    00 000 00 00                : CURVE # 12
MPHIA       .FR.                      00 000 00 00                : CURVE # 13
CILD        .                         00 000 00 00                : CURVE # 20
HDRS        .OHM.M                    00 000 00 00                : CURVE # 21
HT24        .OHM.M                    00 000 00 00                : CURVE # 22
LITHO_VHIII .                         00 000 00 00                : CURVE # 23
MFFIA       .FR.                      00 000 00 00                : CURVE # 24
SPB         .MV                       00 000 00 00                : CURVE # 25
~A        DEPTH           HMRS           SPED           CALA          MBVIA           HDCN           HT90          MPHIA           CILD           HDRS           HT24    LITHO_VHIII          MFFIA            SPB
# ...
       769.4750         1.9389        -2.2290         8.9123      -999.2500       512.8508         1.9505      -999.2500       512.8511         1.9504         1.9297         1.0000      -999.2500        79.0406
       769.6000         2.0471        -2.3218         8.9045      -999.2500       484.1544         2.0655      -999.2500       484.1443         2.0655         2.0327         1.0000      -999.2500        78.9198
       769.7250         2.1825        -2.5941         8.8899      -999.2500       452.3704         2.2120      -999.2500       452.3761         2.2119         2.1596         1.0000      -999.2500        78.6195
       769.8500         2.3303        -3.0962         8.8797      -999.2500       421.2155         2.3760      -999.2500       421.2141         2.3760         2.2951         1.0000      -999.2500        78.0894
       769.9750         2.4885        -3.7624         8.8687      -999.2500       392.6242         2.5485      -999.2500       392.6214         2.5484         2.4426         1.0000      -999.2500        77.3951
       770.1000         2.6596        -4.4875         8.8616      -999.2500       367.4888         2.7212      -999.2500       367.4849         2.7212         2.6123        -1.0000      -999.2500        76.6420
       770.2250         2.8334        -5.2680         8.8359      -999.2500       346.7898         2.8846      -999.2500       346.7918         2.8846         2.7939        -1.0000      -999.2500        75.8335
       770.3500         2.9856        -5.9790         8.7818      -999.2500       330.2974         3.0285      -999.2500       330.2924         3.0285         2.9523        -1.0000      -999.2500        75.0945
       770.4750         3.0931        -6.4276         8.6906      -999.2500       319.7664         3.1275      -999.2500       319.7686         3.1275         3.0662        -1.0000      -999.2500        74.6179
       770.6000         3.1244        -6.4771         8.6335      -999.2500       317.7299         3.1473      -999.2500       317.7327         3.1473         3.1062        -1.0000      -999.2500        74.5404
       770.7250         3.0213        -6.0190         8.6726      -999.2500       329.8279         3.0332      -999.2500       329.8299         3.0333         3.0118        -1.0000      -999.2500        74.9705
       770.8500         2.8235        -5.4809         8.7643      -999.2500       353.4154         2.8323      -999.2500       353.4128         2.8323         2.8166         1.0000      -999.2500        75.4806
       770.9750         2.6201        -5.0648         8.8582      -999.2500       380.0038         2.6330      -999.2500       379.9993         2.6331         2.6096         1.0000      -999.2500        75.8685
       771.1000         2.4780        -4.4019         8.9375      -999.2500       400.5644         2.4965      -999.2500       400.5608         2.4965         2.4634         1.0000      -999.2500        76.5035
       771.2250         2.3417        -3.4825         8.9274      -999.2500       423.7593         2.3619      -999.2500       423.7604         2.3619         2.3257         1.0000      -999.2500        77.3949
       771.3500         2.1019        -2.6767         8.8788      -999.2500       473.5299         2.1189      -999.2500       473.5329         2.1189         2.0885         1.0000      -999.2500        78.1727
       771.4750         1.7955        -2.0912         8.9017      -999.2500       556.9691         1.8018      -999.2500       556.9662         1.8019         1.7903         1.0000      -999.2500        78.7302
       771.6000         1.5420        -1.6645         9.1234      -999.2500       648.6029         1.5418      -999.2500       648.5925         1.5418         1.5422         1.0000      -999.2500        79.1289
       771.7250         1.4112        -1.1350         9.3039      -999.2500       711.0734         1.4068      -999.2500       711.0608         1.4068         1.4147         1.0000      -999.2500        79.6304
       771.8500         1.3599        -0.5627         9.3212      -999.2500       739.1369         1.3530      -999.2500       739.1379         1.3530         1.3656         1.0000      -999.2500        80.1745
       771.9750         1.3523        -0.2950         9.2928      -999.2500       743.5267         1.3449      -999.2500       743.5360         1.3449         1.3582         1.0000      -999.2500        80.4143
       772.1000         1.3626        -0.2810         9.6377      -999.2500       737.5645         1.3558      -999.2500       737.5719         1.3558         1.3681         1.0000      -999.2500        80.4003
       772.2250         1.3803        -0.3671        10.3270      -999.2500       727.4606         1.3747      -999.2500       727.4417         1.3747         1.3848         1.0000      -999.2500        80.2862
       772.3500         1.4042        -0.5159        10.5662      -999.2500       714.2932         1.4001      -999.2500       714.2817         1.4001         1.4075         1.0000      -999.2500        80.1094
       772.4750         1.4359        -0.6628        10.1786      -999.2500       697.6672         1.4334      -999.2500       697.6806         1.4334         1.4379         1.0000      -999.2500        79.9345
       772.6000         1.4730        -0.7642         9.4233      -999.2500       679.0886         1.4726      -999.2500       679.0710         1.4726         1.4734         1.0000      -999.2500        79.8050
       772.7250         1.5082        -0.8397         8.9461      -999.2500       663.0645         1.5082      -999.2500       663.0830         1.5082         1.5083         1.0000      -999.2500        79.7015
       772.8500         1.5361        -0.8978         8.8084      -999.2500       651.8979         1.5340      -999.2500       651.9070         1.5340         1.5378         1.0000      -999.2500        79.6154
       772.9750         1.5572        -0.9218         8.7529      -999.2500       644.3334         1.5520      -999.2500       644.3273         1.5520         1.5613         1.0000      -999.2500        79.5634
       773.1000         1.5769        -0.9057         8.7399      -999.2500       637.2875         1.5692      -999.2500       637.2674         1.5692         1.5831         1.0000      -999.2500        79.5515
       773.2250         1.6042        -0.8329         8.7338      -999.2500       627.0847         1.5948      -999.2500       627.0900         1.5947         1.6118         1.0000      -999.2500        79.5963
       773.3500         1.6399        -0.7760         8.7432      -999.2500       613.2883         1.6307      -999.2500       613.2889         1.6307         1.6473         1.0000      -999.2500        79.6423
       773.4750         1.6770        -0.7348         8.7569      -999.2500       599.5135         1.6682      -999.2500       599.4982         1.6682         1.6841         1.0000      -999.2500        79.6985
       773.6000         1.7008        -0.6937         8.7510      -999.2500       591.4083         1.6909      -999.2500       591.4011         1.6909         1.7088         1.0000      -999.2500        79.7546
       773.7250         1.6956        -0.6298         8.7420      -999.2500       593.2021         1.6858      -999.2500       593.1904         1.6858         1.7035         1.0000      -999.2500        79.8335
       773.8500         1.6700        -0.5567         8.7259      -999.2500       601.3370         1.6630      -999.2500       601.3358         1.6630         1.6755         1.0000      -999.2500        79.9217
       773.9750         1.6368        -0.4955         8.7240      -999.2500       612.4079         1.6330      -999.2500       612.3976         1.6330         1.6399         1.0000      -999.2500        79.9978
       774.1000         1.6073        -0.4517         8.7134      -999.2500       623.0397         1.6050      -999.2500       623.0530         1.6050         1.6092         1.0000      -999.2500        80.0566
