#----------------------------------------------------------------------------------
#
# APPLICATION : SAHARA 3.2.110
# DATE        : 04/07/2024 19:46:19
# PROJECT     : VH-III
#
#----------------------------------------------------------------------------------
~Version Information
VERS. 2.0 : CWLS LOG ASCII STANDARD - VERSION 2.0
WRAP.  NO : One line per depth step
~Well Information
#MNEMONIC   .UNIT                                           VALUE : DESCRIPTION
#----------------------------------------------------------------------------------
STRT        .M                                           283.2000 : START DEPTH
STOP        .M                                          1987.2000 : STOP DEPTH
STEP        .M                                           125.0000 : STEP
NULL        .                                           -999.2500 : NULL VALUE
COMP        .                                                     : COMPANY
WELL        .                                             PVH-937 : WELL NAME
FLD         .                                                     : FIELD
LOC         .                                                     : LOCATION
PROV        .                                                     : PROVINCE
SRVC        .                                                     : SERVICE COMPANY
DATE        .                                                     : DATE
UWI         .                                          5420001652 : UNIQUE WELL ID
XCOORD      .                                        2539513.9200 : SURFACE X
YCOORD      .                                        4929943.0400 : SURFACE Y
ELEV        .M                                           388.2200 : SURFACE ELEV
~Curve Information
#MNEMONIC   .UNIT                       API CODES           CURVE : DESCRIPTION
#----------------------------------------------------------------------------------
DEPTH       .M                        00 000 00 00                : CURVE # 18
HDRS        .OHM.M                    00 000 00 00                : CURVE # 2
SPED        .MV                       00 000 00 00                : CURVE # 4
LITHO_VHIII .                         00 000 00 00                : CURVE # 5
CALA        .                         00 000 00 00                : CURVE # 10
HT24        .OHM.M                    00 000 00 00                : CURVE # 11
MPHIA       .FR.                      00 000 00 00                : CURVE # 12
HDCN        .                         00 000 00 00                : CURVE # 19
HMRS        .OHM.M                    00 000 00 00                : CURVE # 20
HT90        .OHM.M                    00 000 00 00                : CURVE # 21
MBVIA       .FR.                      00 000 00 00                : CURVE # 22
SPB         .MV                       00 000 00 00                : CURVE # 23
~A        DEPTH           HDRS           SPED    LITHO_VHIII           CALA           HT24          MPHIA           HDCN           HMRS           HT90          MBVIA            SPB
# ...
      1188.8250         6.7292        -5.5080         1.0000         8.4794         6.1971         0.1515       148.6499         6.4228         6.7289         0.1116        75.4198
      1188.9500         6.4297        -5.3882         1.0000         8.4211         6.0332         0.1500       155.5702         6.2031         6.4297         0.1116        75.5396
      1189.0750         6.1894        -5.2581         1.0000         8.4306         5.9462         0.1498       161.5923         6.0518         6.1894         0.1131        75.6697
      1189.2000         5.9875        -5.1006        -1.0000         8.4323         5.9389         0.1496       167.0153         5.9604         5.9875         0.1144        75.8272
      1189.3250         5.8399        -4.8261        -1.0000         8.4100         6.0437         0.1468       171.2466         5.9510         5.8398         0.1127        76.1017
      1189.4500         5.6778        -4.5642        -1.0000         8.4735         6.1284         0.1417       176.1618         5.9193         5.6778         0.1089        76.3636
      1189.5750         5.3955        -4.3943        -1.0000         8.6432         6.0098         0.1362       185.4224         5.7202         5.3955         0.1047        76.5335
      1189.7000         5.0174        -4.3886        -1.0000         8.8511         5.6648         0.1308       199.3078         5.3575         5.0174         0.1008        76.5392
      1189.8250         4.7917        -4.4273        -1.0000         8.8041         5.4004         0.1241       208.6925         5.1119         4.7917         0.0966        76.5005
      1189.9500         4.8498        -4.4892        -1.0000         8.5197         5.3842         0.1165       206.2492         5.1328         4.8498         0.0922        76.4386
      1190.0750         5.0565        -4.5635        -1.0000         8.2288         5.4952         0.1107       197.8086         5.2910         5.0565         0.0892        76.3643
      1190.2000         5.0553        -4.6611        -1.0000         8.0854         5.3813         0.1075       197.8133         5.2314         5.0553         0.0881        76.2667
      1190.3250         4.6137        -4.7046         1.0000         8.3109         4.8495         0.1049       217.1328         4.7420         4.6133         0.0875        76.2233
      1190.4500         4.1095        -4.5717        -1.0000         8.6138         4.3291         0.1013       243.7770         4.2286         4.1095         0.0859        76.3561
      1190.5750         3.7887        -4.3322        -1.0000         8.8687         4.0389         0.0972       264.0659         3.9238         3.7887         0.0832        76.5956
      1190.7000         3.6504        -4.0448        -1.0000         8.9872         3.9524         0.0934       273.9460         3.8122         3.6504         0.0802        76.8830
      1190.8250         3.5625        -3.7156         1.0000         9.0146         3.8708         0.0870       280.7408         3.7275         3.5624         0.0746        77.2122
      1190.9500         3.4227        -3.3648         1.0000         9.0335         3.6760         0.0737       292.2767         3.5589         3.4227         0.0620        77.5630
      1191.0750         3.2513        -2.9973         1.0000         9.0376         3.4339         0.0545       307.6701         3.3502         3.2513         0.0435        77.9305
      1191.2000         3.0941        -2.6600         1.0000         9.0321         3.2175         0.0382       323.1930         3.1615         3.0941         0.0276        78.2678
      1191.3250         2.9626        -2.2816         1.0000         9.0398         3.0507         0.0312       337.6094         3.0110         2.9625         0.0200        78.6462
      1191.4500         2.8473        -1.9377         1.0000         9.0631         2.9250         0.0297       351.2920         2.8899         2.8473         0.0170        78.9901
      1191.5750         2.7474        -1.6263         1.0000         9.0817         2.8369         0.0298       364.0211         2.7964         2.7474         0.0151        79.3015
      1191.7000         2.6626        -1.3683         1.0000         9.0937         2.7726         0.0307       375.5764         2.7226         2.6626         0.0140        79.5595
      1191.8250         2.5794        -1.1684         1.0000         9.1217         2.6803         0.0322       387.7570         2.6345         2.5794         0.0138        79.7594
      1191.9500         2.4518        -1.0861         1.0000         9.3239         2.5040         0.0331       408.1608         2.4804         2.4518         0.0139        79.8417
      1192.0750         2.2434        -1.0654         1.0000         9.8606         2.2285         0.0334       446.3311         2.2350         2.2434         0.0138        79.8624
      1192.2000         1.9879        -1.0719         1.0000        10.5741         1.9246         0.0333       503.0344         1.9522         1.9879         0.0136        79.8559
      1192.3250         1.7917        -1.1284         1.0000        10.9028         1.7141         0.0335       558.4539         1.7478         1.7916         0.0136        79.7994
      1192.4500         1.7037        -1.2355         1.0000        10.7495         1.6270         0.0342       586.9853         1.6603         1.7037         0.0138        79.6923
      1192.5750         1.7285        -1.3816         1.0000        10.2684         1.6619         0.0351       578.6058         1.6909         1.7285         0.0142        79.5462
      1192.7000         1.8562        -1.6398         1.0000         9.7945         1.8077         0.0359       538.7441         1.8289         1.8562         0.0145        79.2880
      1192.8250         2.0787        -1.7619        -1.0000         9.3940         2.0530         0.0363       481.8965         2.0642         2.0789         0.0146        79.1659
      1192.9500         2.3247        -1.8772        -1.0000         9.1834         2.3118         0.0352       430.8426         2.3176         2.3247         0.0140        79.0506
      1193.0750         2.5078        -1.9576        -1.0000         9.2140         2.4931         0.0313       398.9309         2.4997         2.5078         0.0124        78.9702
      1193.2000         2.5985        -2.0982        -1.0000         9.2816         2.5621         0.0251       384.8327         2.5781         2.5985         0.0098        78.8296
      1193.3250         2.6646        -2.1903        -1.0000         9.2411         2.6030         0.0204       375.3379         2.6300         2.6647         0.0078        78.7375
      1193.4500         2.7571        -2.1908         1.0000         9.1131         2.6764         0.0183       362.7684         2.7117         2.7571         0.0069        78.7370
      1193.5750         2.8198        -2.1009         1.0000         9.0574         2.7382         0.0179       354.6456         2.7738         2.8198         0.0071        78.8269
      1193.7000         2.7797        -2.0590         1.0000         9.0500         2.7327         0.0177       359.7482         2.7534         2.7797         0.0076        78.8688
      1193.8250         2.6705        -1.9384         1.0000         9.0472         2.6609         0.0178       374.5310         2.6651         2.6704         0.0082        78.9894
      1193.9500         2.5806        -1.8124         1.0000         9.0226         2.5898         0.0181       387.5467         2.5857         2.5806         0.0088        79.1154
      1194.0750         2.5302        -1.6596         1.0000         9.0146         2.5438         0.0188       395.2332         2.5378         2.5302         0.0095        79.2682
      1194.2000         2.5159        -1.5794         1.0000         9.0239         2.5202         0.0201       397.4738         2.5183         2.5159         0.0109        79.3484
      1194.3250         2.5183        -1.5053         1.0000         9.0334         2.4950         0.0221       397.1068         2.5053         2.5182         0.0129        79.4225
