#----------------------------------------------------------------------------------
#
# APPLICATION : SAHARA 3.2.110
# DATE        : 04/07/2024 19:46:15
# PROJECT     : VH-III
#
#----------------------------------------------------------------------------------
~Version Information
VERS. 2.0 : CWLS LOG ASCII STANDARD - VERSION 2.0
WRAP.  NO : One line per depth step
~Well Information
#MNEMONIC   .UNIT                                           VALUE : DESCRIPTION
#----------------------------------------------------------------------------------
STRT        .M                                           200.0000 : START DEPTH
STOP        .M                                          1624.7500 : STOP DEPTH
STEP        .M                                           125.0000 : STEP
NULL        .                                           -999.2500 : NULL VALUE
COMP        .                                                     : COMPANY
WELL        .                                             PVH-941 : WELL NAME
FLD         .                                                     : FIELD
LOC         .                                                     : LOCATION
PROV        .                                                     : PROVINCE
SRVC        .                                                     : SERVICE COMPANY
DATE        .                                                     : DATE
UWI         .                                          5420002501 : UNIQUE WELL ID
XCOORD      .                                        2539607.2000 : SURFACE X
YCOORD      .                                        4929727.3600 : SURFACE Y
ELEV        .M                                           399.3400 : SURFACE ELEV
~Curve Information
#MNEMONIC   .UNIT                       API CODES           CURVE : DESCRIPTION
#----------------------------------------------------------------------------------
DEPTH       .M                        00 000 00 00                : CURVE # 19
DT          .US/FT                    00 000 00 00                : CURVE # 2
RHOB        .                         00 000 00 00                : CURVE # 3
BS          .                         00 000 00 00                : CURVE # 6
MBVIA       .FR.                      00 000 00 00                : CURVE # 7
CILD        .                         00 000 00 00                : CURVE # 10
HDRS        .OHM.M                    00 000 00 00                : CURVE # 11
MPHIA       .FR.                      00 000 00 00                : CURVE # 12
SPED        .MV                       00 000 00 00                : CURVE # 13
CALA        .                         00 000 00 00                : CURVE # 20
DPHI        .FR.                      00 000 00 00                : CURVE # 21
HDCN        .                         00 000 00 00                : CURVE # 22
LITHO_VHIII .                         00 000 00 00                : CURVE # 23
MFFIA       .FR.                      00 000 00 00                : CURVE # 24
PE          .                         00 000 00 00                : CURVE # 25
SPB         .MV                       00 000 00 00                : CURVE # 26
SPHI        .FR.                      00 000 00 00                : CURVE # 27
~A        DEPTH             DT           RHOB             BS          MBVIA           CILD           HDRS          MPHIA           SPED           CALA           DPHI           HDCN    LITHO_VHIII          MFFIA             PE            SPB           SPHI
# ...
       444.0000       117.0170      -999.2500         8.5000      -999.2500       741.9498         1.3478      -999.2500        -2.4197        11.8611      -999.2500       741.9237      -999.2500      -999.2500      -999.2500        78.5081      -999.2500
       444.1250       117.2507      -999.2500         8.5000      -999.2500       758.3719         1.3186      -999.2500        -2.5886        12.0307      -999.2500       758.3593      -999.2500      -999.2500      -999.2500        78.3345      -999.2500
       444.2500       117.5510      -999.2500         8.5000      -999.2500       759.9976         1.3158      -999.2500        -2.5402        12.0976      -999.2500       759.9997      -999.2500      -999.2500      -999.2500        78.3783      -999.2500
       444.3750       117.9510      -999.2500         8.5000      -999.2500       753.5884         1.3270      -999.2500        -2.4532        12.0747      -999.2500       753.6069      -999.2500      -999.2500      -999.2500        78.4606      -999.2500
       444.5000       118.2450      -999.2500         8.5000      -999.2500       746.9933         1.3387      -999.2500        -2.3691        11.8896      -999.2500       747.0200      -999.2500      -999.2500      -999.2500        78.5401      -999.2500
       444.6250       118.5115      -999.2500         8.5000      -999.2500       744.5878         1.3430      -999.2500        -2.1263        11.6189      -999.2500       744.5783      -999.2500      -999.2500      -999.2500        78.7781      -999.2500
       444.7500       118.7720      -999.2500         8.5000      -999.2500       745.2406         1.3418      -999.2500        -2.1008        11.4281      -999.2500       745.2632      -999.2500      -999.2500      -999.2500        78.7990      -999.2500
       444.8750       119.0220      -999.2500         8.5000      -999.2500       746.6032         1.3394      -999.2500        -2.0496        11.3954      -999.2500       746.5980      -999.2500      -999.2500      -999.2500        78.8456      -999.2500
       445.0000       119.1520      -999.2500         8.5000      -999.2500       745.7678         1.3409      -999.2500        -2.2156        11.6275      -999.2500       745.7773      -999.2500      -999.2500      -999.2500        78.6749      -999.2500
       445.1250       119.1920      -999.2500         8.5000      -999.2500       741.2266         1.3491      -999.2500        -1.9870        12.1517      -999.2500       741.2252      -999.2500      -999.2500      -999.2500        78.8987      -999.2500
       445.2500       118.8925      -999.2500         8.5000      -999.2500       734.1470         1.3622      -999.2500        -1.8873        12.6103      -999.2500       734.1473      -999.2500      -999.2500      -999.2500        78.9939      -999.2500
       445.3750       118.4430      -999.2500         8.5000      -999.2500       726.0815         1.3773      -999.2500        -1.7788        12.8767      -999.2500       726.0845      -999.2500      -999.2500      -999.2500        79.0977      -999.2500
       445.5000       117.1530      -999.2500         8.5000      -999.2500       719.1141         1.3906      -999.2500        -1.6847        13.0291      -999.2500       719.0995      -999.2500      -999.2500      -999.2500        79.1871      -999.2500
       445.6250       116.7030      -999.2500         8.5000      -999.2500       714.3253         1.3999      -999.2500        -1.7306        13.1131      -999.2500       714.3011      -999.2500      -999.2500      -999.2500        79.1365      -999.2500
       445.7500       114.8830      -999.2500         8.5000      -999.2500       712.2000         1.4041      -999.2500        -1.6137        13.1573      -999.2500       712.1844      -999.2500      -999.2500      -999.2500        79.2488      -999.2500
       445.8750       111.0078      -999.2500         8.5000      -999.2500       714.0838         1.4004      -999.2500        -1.4409        13.1972      -999.2500       714.0810      -999.2500      -999.2500      -999.2500        79.4169      -999.2500
       446.0000       107.1340      -999.2500         8.5000      -999.2500       718.8040         1.3912      -999.2500        -1.3482        13.0234      -999.2500       718.7875      -999.2500      -999.2500      -999.2500        79.5049      -999.2500
       446.1250       104.0340      -999.2500         8.5000      -999.2500       718.3399         1.3921      -999.2500        -1.3913        12.4036      -999.2500       718.3572      -999.2500      -999.2500      -999.2500        79.4572      -999.2500
       446.2500       122.5140      -999.2500         8.5000      -999.2500       701.2460         1.4264      -999.2500        -1.4601        11.3882      -999.2500       701.2562      -999.2500      -999.2500      -999.2500        79.3837      -999.2500
       446.3750       141.1440      -999.2500         8.5000      -999.2500       662.4104         1.5105      -999.2500        -1.6704        10.3471      -999.2500       662.4126      -999.2500      -999.2500      -999.2500        79.1687      -999.2500
       446.5000       143.6540      -999.2500         8.5000      -999.2500       609.9048         1.6396      -999.2500        -2.1436         9.4683      -999.2500       609.9131      -999.2500      -999.2500      -999.2500        78.6908      -999.2500
       446.6250       146.7298      -999.2500         8.5000      -999.2500       562.3815         1.7791      -999.2500        -3.0814         8.8744      -999.2500       562.3755      -999.2500      -999.2500      -999.2500        77.7484      -999.2500
       446.7500       149.2850      -999.2500         8.5000      -999.2500       531.9019         1.8805      -999.2500        -4.3163         8.7476      -999.2500       531.8918      -999.2500      -999.2500      -999.2500        76.5086      -999.2500
       446.8750       147.7448      -999.2500         8.5000      -999.2500       517.0494         1.9342      -999.2500        -5.5729         8.6978      -999.2500       517.0461      -999.2500      -999.2500      -999.2500        75.2474      -999.2500
       447.0000       145.9150      -999.2500         8.5000      -999.2500       509.1131         1.9642      -999.2500        -6.9010         8.6593      -999.2500       509.1057      -999.2500      -999.2500      -999.2500        73.9148      -999.2500
       447.1250       144.5554      -999.2500         8.5000      -999.2500       503.0089         1.9881      -999.2500        -7.8629         8.6465      -999.2500       503.0144      -999.2500      -999.2500      -999.2500        72.9481      -999.2500
       447.2500       142.2960      -999.2500         8.5000      -999.2500       499.2413         2.0031      -999.2500        -8.9793         8.6479      -999.2500       499.2444      -999.2500      -999.2500      -999.2500        71.8270      -999.2500
       447.3750       141.2660      -999.2500         8.5000      -999.2500       495.0734         2.0199      -999.2500       -10.1473         8.6878      -999.2500       495.0718      -999.2500      -999.2500      -999.2500        70.6544      -999.2500
       447.5000       140.6760      -999.2500         8.5000      -999.2500       487.2819         2.0522      -999.2500       -11.6068         8.7277      -999.2500       487.2905      -999.2500      -999.2500      -999.2500        69.1903      -999.2500
       447.6250       140.0570      -999.2500         8.5000      -999.2500       478.2461         2.0910      -999.2500       -12.6988         8.7932      -999.2500       478.2400      -999.2500      -999.2500      -999.2500        68.0936      -999.2500
       447.7500       140.0000      -999.2500         8.5000      -999.2500       473.1164         2.1137      -999.2500       -13.6366         8.7960      -999.2500       473.1137      -999.2500      -999.2500      -999.2500        67.1511      -999.2500
       447.8750       140.0000      -999.2500         8.5000      -999.2500       475.0140         2.1052      -999.2500       -14.3258         8.7690      -999.2500       475.0174      -999.2500      -999.2500      -999.2500        66.4573      -999.2500
