#----------------------------------------------------------------------------------
#
# APPLICATION : SAHARA 3.2.110
# DATE        : 04/07/2024 19:46:19
# PROJECT     : VH-III
#
#----------------------------------------------------------------------------------
~Version Information
VERS. 2.0 : CWLS LOG ASCII STANDARD - VERSION 2.0
WRAP.  NO : One line per depth step
~Well Information
#MNEMONIC   .UNIT                                           VALUE : DESCRIPTION
#----------------------------------------------------------------------------------
STRT        .M                                           283.2000 : START DEPTH
STOP        .M                                          1987.2000 : STOP DEPTH
STEP        .M                                           125.0000 : STEP
NULL        .                                           -999.2500 : NULL VALUE
COMP        .                                                     : COMPANY
WELL        .                                             PVH-937 : WELL NAME
FLD         .                                                     : FIELD
LOC         .                                                     : LOCATION
PROV        .                                                     : PROVINCE
SRVC        .                                                     : SERVICE COMPANY
DATE        .                                                     : DATE
UWI         .                                          5420001652 : UNIQUE WELL ID
XCOORD      .                                        2539513.9200 : SURFACE X
YCOORD      .                                        4929943.0400 : SURFACE Y
ELEV        .M                                           388.2200 : SURFACE ELEV
~Curve Information
#MNEMONIC   .UNIT                       API CODES           CURVE : DESCRIPTION
#----------------------------------------------------------------------------------
DEPTH       .M                        00 000 00 00                : CURVE # 18
HDRS        .OHM.M                    00 000 00 00                : CURVE # 2
SPED        .MV                       00 000 00 00                : CURVE # 4
LITHO_VHIII .                         00 000 00 00                : CURVE # 5
CALA        .                         00 000 00 00                : CURVE # 10
HT24        .OHM.M                    00 000 00 00                : CURVE # 11
MPHIA       .FR.                      00 000 00 00                : CURVE # 12
HDCN        .                         00 000 00 00                : CURVE # 19
HMRS        .OHM.M                    00 000 00 00                : CURVE # 20
HT90        .OHM.M                    00 000 00 00                : CURVE # 21
MBVIA       .FR.                      00 000 00 00                : CURVE # 22
SPB         .MV                       00 000 00 00                : CURVE # 23
~A        DEPTH           HDRS           SPED    LITHO_VHIII           CALA           HT24          MPHIA           HDCN           HMRS           HT90          MBVIA            SPB
# ...
       395.7000         1.3773        -0.4669      -999.2500        11.1476         1.1986      -999.2500       726.0576         1.2719         1.3773      -999.2500        79.4049
       395.8250         1.3709        -0.1008      -999.2500        11.1949         1.1944      -999.2500       729.4534         1.2669         1.3709      -999.2500        79.8024
       395.9500         1.3754        -0.1902      -999.2500        10.8875         1.1947      -999.2500       727.0781         1.2688         1.3754      -999.2500        79.7444
       396.0750         1.3948        -0.2159      -999.2500        10.6787         1.2036      -999.2500       716.9730         1.2817         1.3948      -999.2500        79.7502
       396.2000         1.4309        -0.0338      -999.2500        10.6064         1.2252      -999.2500       698.8422         1.3088         1.4309      -999.2500        79.9637
       396.3250         1.4804        -0.0144      -999.2500        11.0183         1.2595      -999.2500       675.5764         1.3490         1.4804      -999.2500        80.0145
       396.4500         1.5291         0.0118      -999.2500        11.3146         1.2949      -999.2500       654.0667         1.3895         1.5291      -999.2500        80.0722
       396.5750         1.5661        -0.0235      -999.2500        11.2390         1.3242      -999.2500       638.5755         1.4217         1.5661      -999.2500        80.0683
       396.7000         1.5886        -0.0957      -999.2500        10.8013         1.3449      -999.2500       629.4781         1.4433         1.5886      -999.2500        80.0275
       396.8250         1.6031        -0.0715      -999.2500        10.4754         1.3586      -999.2500       623.7891         1.4574         1.6031      -999.2500        80.0831
       396.9500         1.6181        -0.1416      -999.2500        10.5325         1.3714      -999.2500       618.0300         1.4711         1.6181      -999.2500        80.0444
       397.0750         1.6318        -0.2198      -999.2500        10.5726         1.3841      -999.2500       612.8342         1.4842         1.6318      -999.2500        79.9977
       397.2000         1.6380        -0.1352      -999.2500        10.5197         1.3925      -999.2500       610.4839         1.4919         1.6380      -999.2500        80.1137
       397.3250         1.6328        -0.1566      -999.2500        10.4291         1.3904      -999.2500       612.4612         1.4886         1.6328      -999.2500        80.1237
       397.4500         1.6191        -0.1875      -999.2500        10.3439         1.3786      -999.2500       617.6418         1.4761         1.6191      -999.2500        80.1243
       397.5750         1.5993        -0.2718      -999.2500        10.1458         1.3631      -999.2500       625.2941         1.4588         1.5993      -999.2500        80.0714
       397.7000         1.5759        -0.1825      -999.2500         9.9409         1.3490      -999.2500       634.5383         1.4412         1.5759      -999.2500        80.1922
       397.8250         1.5538        -0.2346      -999.2500         9.8446         1.3396      -999.2500       643.5974         1.4270         1.5538      -999.2500        80.1715
       397.9500         1.5396        -0.2771      -999.2500         9.9054         1.3365      -999.2500       649.5391         1.4197         1.5396      -999.2500        80.1604
       398.0750         1.5371        -0.3546      -999.2500         9.9467         1.3420      -999.2500       650.6059         1.4223         1.5371      -999.2500        80.1143
       398.2000         1.5480        -0.5086      -999.2500         9.8220         1.3554      -999.2500       646.0048         1.4347         1.5480      -999.2500        79.9918
       398.3250         1.5729        -0.4745      -999.2500         9.6089         1.3766      -999.2500       635.8173         1.4575         1.5729      -999.2500        80.0573
       398.4500         1.6066        -0.6744      -999.2500         9.2997         1.4039      -999.2500       622.4951         1.4872         1.6066      -999.2500        79.8889
       398.5750         1.6422        -0.6446      -999.2500         9.1775         1.4349      -999.2500       608.9692         1.5202         1.6422      -999.2500        79.9502
       398.7000         1.6692        -0.6433      -999.2500         9.1490         1.4621      -999.2500       599.0795         1.5475         1.6692      -999.2500        79.9828
       398.8250         1.6771        -0.8820      -999.2500         9.2370         1.4739      -999.2500       596.2730         1.5578         1.6771      -999.2500        79.7755
       398.9500         1.6716        -1.0306      -999.2500         9.3331         1.4748      -999.2500       598.2554         1.5562         1.6716      -999.2500        79.6584
       399.0750         1.6617        -1.0581      -999.2500         9.4114         1.4695      -999.2500       601.7855         1.5491         1.6617      -999.2500        79.6623
       399.2000         1.6525        -1.1061      -999.2500         9.4110         1.4634      -999.2500       605.1272         1.5418         1.6525      -999.2500        79.6457
       399.3250         1.6511        -1.2710      -999.2500         9.2570         1.4658      -999.2500       605.6461         1.5428         1.6511      -999.2500        79.5122
       399.4500         1.6709        -1.7669      -999.2500         9.1099         1.4860      -999.2500       598.4963         1.5629         1.6709      -999.2500        79.0478
       399.5750         1.7193        -2.1622      -999.2500         9.0474         1.5367      -999.2500       581.7101         1.6129         1.7193      -999.2500        78.6839
       399.7000         1.7915        -2.3593      -999.2500         9.0191         1.6160      -999.2500       558.2029         1.6895         1.7915      -999.2500        78.5182
       399.8250         1.8627        -2.5249      -999.2500         9.0085         1.6813      -999.2500       536.8934         1.7573         1.8627      -999.2500        78.3840
       399.9500         1.8807        -2.6831      -999.2500         9.0165         1.6991      -999.2500       531.7341         1.7752         1.8807      -999.2500        78.2417
       400.0750         1.8357        -2.7627      -999.2500         9.0440         1.6738      -999.2500       544.8220         1.7421         1.8357      -999.2500        78.1546
       400.2000         1.7753        -2.9065      -999.2500         9.0553         1.6397      -999.2500       563.2950         1.6973         1.7753      -999.2500        78.0033
       400.3250         1.7677        -3.2643      -999.2500         9.0668         1.6469      -999.2500       565.7490         1.6984         1.7677      -999.2500        77.6381
       400.4500         1.8329        -3.8436      -999.2500         9.0462         1.7117      -999.2500       545.8606         1.7636         1.8329      -999.2500        77.0513
       400.5750         1.9582        -4.4126      -999.2500         9.0026         1.8156      -999.2500       510.9799         1.8764         1.9582      -999.2500        76.4746
       400.7000         2.0765        -5.3222      -999.2500         8.9474         1.9258      -999.2500       481.5681         1.9900         2.0765      -999.2500        75.5577
       400.8250         2.1263        -6.2939      -999.2500         8.9206         1.9927      -999.2500       470.3011         2.0499         2.1263      -999.2500        74.5785
       400.9500         2.1389        -7.2286      -999.2500         8.9219         2.0161      -999.2500       467.5265         2.0689         2.1389      -999.2500        73.6362
       401.0750         2.1455        -8.0158      -999.2500         8.9006         2.0221      -999.2500       466.0944         2.0751         2.1455      -999.2500        72.8415
       401.2000         2.1576        -8.6621      -999.2500         8.8854         2.0346      -999.2500       463.4868         2.0875         2.1576      -999.2500        72.1878
