#----------------------------------------------------------------------------------
#
# APPLICATION : SAHARA 3.2.110
# DATE        : 04/07/2024 19:46:19
# PROJECT     : VH-III
#
#----------------------------------------------------------------------------------
~Version Information
VERS. 2.0 : CWLS LOG ASCII STANDARD - VERSION 2.0
WRAP.  NO : One line per depth step
~Well Information
#MNEMONIC   .UNIT                                           VALUE : DESCRIPTION
#----------------------------------------------------------------------------------
STRT        .M                                           283.2000 : START DEPTH
STOP        .M                                          1987.2000 : STOP DEPTH
STEP        .M                                           125.0000 : STEP
NULL        .                                           -999.2500 : NULL VALUE
COMP        .                                                     : COMPANY
WELL        .                                             PVH-937 : WELL NAME
FLD         .                                                     : FIELD
LOC         .                                                     : LOCATION
PROV        .                                                     : PROVINCE
SRVC        .                                                     : SERVICE COMPANY
DATE        .                                                     : DATE
UWI         .                                          5420001652 : UNIQUE WELL ID
XCOORD      .                                        2539513.9200 : SURFACE X
YCOORD      .                                        4929943.0400 : SURFACE Y
ELEV        .M                                           388.2200 : SURFACE ELEV
~Curve Information
#MNEMONIC   .UNIT                       API CODES           CURVE : DESCRIPTION
#----------------------------------------------------------------------------------
DEPTH       .M                        00 000 00 00                : CURVE # 18
HDRS        .OHM.M                    00 000 00 00                : CURVE # 2
SPED        .MV                       00 000 00 00                : CURVE # 4
LITHO_VHIII .                         00 000 00 00                : CURVE # 5
CALA        .                         00 000 00 00                : CURVE # 10
HT24        .OHM.M                    00 000 00 00                : CURVE # 11
MPHIA       .FR.                      00 000 00 00                : CURVE # 12
HDCN        .                         00 000 00 00                : CURVE # 19
HMRS        .OHM.M                    00 000 00 00                : CURVE # 20
HT90        .OHM.M                    00 000 00 00                : CURVE # 21
MBVIA       .FR.                      00 000 00 00                : CURVE # 22
SPB         .MV                       00 000 00 00                : CURVE # 23
~A        DEPTH           HDRS           SPED    LITHO_VHIII           CALA           HT24          MPHIA           HDCN           HMRS           HT90          MBVIA            SPB
# ...
      1076.3250         2.2591        -0.0924         1.0000         8.9279         2.2133         0.0342       442.6625         2.2334         2.2591         0.0294        80.3200
      1076.4500         2.2269        -0.0836         1.0000         8.9320         2.1787         0.0314       449.0870         2.1999         2.2269         0.0253        80.3288
      1076.5750         2.1733        -0.1055         1.0000         8.9329         2.1344         0.0291       460.1558         2.1515         2.1733         0.0219        80.3069
      1076.7000         2.1406        -0.1534         1.0000         8.9298         2.1176         0.0278       467.1552         2.1278         2.1406         0.0201        80.2590
      1076.8250         2.1801        -0.1985         1.0000         8.9266         2.1590         0.0271       458.7705         2.1682         2.1801         0.0194        80.2139
      1076.9500         2.2517        -0.1822         1.0000         8.9264         2.2147         0.0262       444.1624         2.2311         2.2517         0.0183        80.2302
      1077.0750         2.2744        -0.2047         1.0000         8.9262         2.2216         0.0254       439.6754         2.2448         2.2744         0.0176        80.2077
      1077.2000         2.2062        -0.2355         1.0000         8.9288         2.1590         0.0259       453.2604         2.1798         2.2062         0.0185        80.1769
      1077.3250         2.1215        -0.2752         1.0000         8.9394         2.0820         0.0286       471.3896         2.0994         2.1214         0.0222        80.1372
      1077.4500         2.1025        -0.2644         1.0000         8.9441         2.0502         0.0322       475.6170         2.0731         2.1025         0.0274        80.1480
      1077.5750         2.1255        -0.2965         1.0000         8.9440         2.0540         0.0352       470.4784         2.0852         2.1255         0.0315        80.1159
      1077.7000         2.1054        -0.3588         1.0000         8.9325         2.0257         0.0366       474.9642         2.0604         2.1054         0.0334        80.0536
      1077.8250         1.9712        -0.4278         1.0000         8.9851         1.8943         0.0365       507.8612         1.9278         1.9710         0.0332        79.9846
      1077.9500         1.8002        -0.4477         1.0000         9.1226         1.7509         0.0361       556.1202         1.7724         1.8002         0.0325        79.9647
      1078.0750         1.7065        -0.5127         1.0000         9.1898         1.6814         0.0359       586.0684         1.6925         1.7065         0.0321        79.8997
      1078.2000         1.7527        -0.5612         1.0000         9.1475         1.7419         0.0371       570.5375         1.7467         1.7527         0.0331        79.8512
      1078.3250         1.9776        -0.5852         1.0000         8.9928         1.9442         0.0401       506.8770         1.9588         1.9778         0.0358        79.8272
      1078.4500         2.2559        -0.5600         1.0000         8.9230         2.2038         0.0430       444.2583         2.2267         2.2559         0.0384        79.8524
      1078.5750         2.4532        -0.5490         1.0000         8.9249         2.3991         0.0446       407.8164         2.4229         2.4532         0.0398        79.8634
      1078.7000         2.5240        -0.5341         1.0000         8.9614         2.4900         0.0451       396.1967         2.5050         2.5240         0.0401        79.8783
      1078.8250         2.5776        -0.4739         1.0000         8.9647         2.5557         0.0459       388.0187         2.5654         2.5777         0.0408        79.9385
      1078.9500         2.6842        -0.4165         1.0000         8.9595         2.6341         0.0472       372.6726         2.6561         2.6842         0.0418        79.9959
      1079.0750         2.7565        -0.3796         1.0000         8.9412         2.6779         0.0485       362.7825         2.7123         2.7565         0.0429        80.0328
      1079.2000         2.6952        -0.3674         1.0000         8.9508         2.6366         0.0491       371.0290         2.6623         2.6952         0.0431        80.0450
      1079.3250         2.5282        -0.3729         1.0000         8.9459         2.5270         0.0472       395.7552         2.5275         2.5280         0.0403        80.0395
      1079.4500         2.3717        -0.3688         1.0000         8.9366         2.3979         0.0433       421.8849         2.3862         2.3717         0.0349        80.0436
      1079.5750         2.2020        -0.4016         1.0000         8.9386         2.2233         0.0394       454.5042         2.2138         2.2020         0.0296        80.0108
      1079.7000         1.9475        -0.4545         1.0000         9.0599         1.9659         0.0368       513.4725         1.9577         1.9475         0.0264        79.9579
      1079.8250         1.6338        -0.5462         1.0000         9.4499         1.6781         0.0352       614.0544         1.6582         1.6336         0.0248        79.8662
      1079.9500         1.4067        -0.6243         1.0000         9.9529         1.4340         0.0328       712.7241         1.4217         1.4067         0.0228        79.7881
      1080.0750         1.2699        -0.7127         1.0000        10.3539         1.2850         0.0306       788.1021         1.2783         1.2699         0.0207        79.6997
      1080.2000         1.2031        -0.8434         1.0000        10.3916         1.2176         0.0302       831.1653         1.2111         1.2031         0.0193        79.5690
      1080.3250         1.1841        -0.9051         1.0000        10.2753         1.2038         0.0337       844.5629         1.1950         1.1840         0.0199        79.5073
      1080.4500         1.1810        -0.9641         1.0000        10.1736         1.2023         0.0394       846.7106         1.1927         1.1810         0.0221        79.4483
      1080.5750         1.1834        -1.0517         1.0000        10.1656         1.2003         0.0447       845.0081         1.1927         1.1834         0.0248        79.3607
      1080.7000         1.1886        -1.1202         1.0000        10.2372         1.1999         0.0478       841.3305         1.1948         1.1886         0.0266        79.2922
      1080.8250         1.2029        -1.1402         1.0000        10.3720         1.2115         0.0499       831.3494         1.2077         1.2029         0.0275        79.2722
      1080.9500         1.2338        -1.1547         1.0000        10.3096         1.2400         0.0527       810.6554         1.2372         1.2338         0.0286        79.2577
      1081.0750         1.2839        -1.2287         1.0000        10.0726         1.2904         0.0555       779.0790         1.2875         1.2839         0.0298        79.1837
      1081.2000         1.3479        -1.2795         1.0000         9.7871         1.3636         0.0571       741.8803         1.3566         1.3479         0.0307        79.1329
      1081.3250         1.4151        -1.2741         1.0000         9.8183         1.4489         0.0575       706.8356         1.4337         1.4152         0.0315        79.1383
      1081.4500         1.4798        -1.2579         1.0000         9.8851         1.5288         0.0574       675.9422         1.5067         1.4798         0.0320        79.1545
      1081.5750         1.5451        -1.2929         1.0000         9.8522         1.5993         0.0557       647.3527         1.5747         1.5451         0.0311        79.1194
      1081.7000         1.6138        -1.2992         1.0000         9.7324         1.6625         0.0513       619.6703         1.6405         1.6138         0.0278        79.1132
      1081.8250         1.6808        -1.2577         1.0000         9.6545         1.7107         0.0448       595.0421         1.6973         1.6809         0.0225        79.1547
