#----------------------------------------------------------------------------------
#
# APPLICATION : SAHARA 3.2.110
# DATE        : 04/07/2024 19:46:19
# PROJECT     : VH-III
#
#----------------------------------------------------------------------------------
~Version Information
VERS. 2.0 : CWLS LOG ASCII STANDARD - VERSION 2.0
WRAP.  NO : One line per depth step
~Well Information
#MNEMONIC   .UNIT                                           VALUE : DESCRIPTION
#----------------------------------------------------------------------------------
STRT        .M                                           283.2000 : START DEPTH
STOP        .M                                          1987.2000 : STOP DEPTH
STEP        .M                                           125.0000 : STEP
NULL        .                                           -999.2500 : NULL VALUE
COMP        .                                                     : COMPANY
WELL        .                                             PVH-937 : WELL NAME
FLD         .                                                     : FIELD
LOC         .                                                     : LOCATION
PROV        .                                                     : PROVINCE
SRVC        .                                                     : SERVICE COMPANY
DATE        .                                                     : DATE
UWI         .                                          5420001652 : UNIQUE WELL ID
XCOORD      .                                        2539513.9200 : SURFACE X
YCOORD      .                                        4929943.0400 : SURFACE Y
ELEV        .M                                           388.2200 : SURFACE ELEV
~Curve Information
#MNEMONIC   .UNIT                       API CODES           CURVE : DESCRIPTION
#----------------------------------------------------------------------------------
DEPTH       .M                        00 000 00 00                : CURVE # 18
HDRS        .OHM.M                    00 000 00 00                : CURVE # 2
SPED        .MV                       00 000 00 00                : CURVE # 4
LITHO_VHIII .                         00 000 00 00                : CURVE # 5
CALA        .                         00 000 00 00                : CURVE # 10
HT24        .OHM.M                    00 000 00 00                : CURVE # 11
MPHIA       .FR.                      00 000 00 00                : CURVE # 12
HDCN        .                         00 000 00 00                : CURVE # 19
HMRS        .OHM.M                    00 000 00 00                : CURVE # 20
HT90        .OHM.M                    00 000 00 00                : CURVE # 21
MBVIA       .FR.                      00 000 00 00                : CURVE # 22
SPB         .MV                       00 000 00 00                : CURVE # 23
~A        DEPTH           HDRS           SPED    LITHO_VHIII           CALA           HT24          MPHIA           HDCN           HMRS           HT90          MBVIA            SPB
# ...
      1981.9500         6.3676        -1.4286         1.0000         8.2010         5.5989         0.0269       157.0474         5.9163         6.3675         0.0021        81.1405
      1982.0750         6.3392        -1.3885         1.0000         8.2010         5.6113         0.0269       157.7499         5.9130         6.3392         0.0021        81.2102
      1982.2000         6.3242        -1.3319         1.0000         8.2010         5.6309         0.0269       158.1230         5.9193         6.3242         0.0021        81.2964
      1982.3250         6.3197        -1.2891         1.0000         8.2010         5.6430         0.0269       158.2361         5.9250         6.3196         0.0021        81.3689
      1982.4500         6.3111        -1.2298         1.0000         8.2010         5.6372         0.0269       158.4517         5.9181         6.3110         0.0021        81.4578
      1982.5750         6.2976        -1.2115         1.0000         8.2010         5.6195         0.0269       158.7890         5.9020         6.2976         0.0021        81.5056
      1982.7000         6.2871        -1.2043         1.0000         8.2010         5.6171         0.0269       159.0558         5.8964         6.2871         0.0021        81.5425
      1982.8250         6.2809        -1.1580         1.0000         8.2010         5.6409         0.0269       159.2124         5.9084         6.2809         0.0021        81.6184
      1982.9500         6.2786        -1.1104         1.0000         8.2010         5.6663         0.0269       159.2713         5.9230         6.2786         0.0021        81.6957
      1983.0750         6.2776        -1.0730         1.0000         8.2010         5.6778         0.0269       159.2981         5.9296         6.2776         0.0021        81.7626
      1983.2000         6.2780        -1.0466         1.0000         8.2010         5.6855         0.0269       159.2855         5.9344         6.2780         0.0021        81.8187
      1983.3250         6.2779        -0.9866         1.0000         8.2010         5.6930         0.0269       159.2904         5.9389         6.2779         0.0021        81.9083
      1983.4500         6.2788        -0.9240         1.0000         8.2010         5.7002         0.0269       159.2669         5.9435         6.2788         0.0021        82.0006
      1983.5750         6.2803        -0.8921         1.0000         8.2010         5.7002         0.0269       159.2301         5.9442         6.2803         0.0021        82.0621
      1983.7000         6.2816        -0.8506         1.0000         8.2010         5.6956         0.0269       159.1942         5.9420         6.2816         0.0021        82.1332
      1983.8250         6.2800        -0.7612         1.0000         8.2010         5.6909         0.0269       159.2369         5.9384         6.2799         0.0021        82.2523
      1983.9500         6.2774        -0.6597         1.0000         8.2010         5.6923         0.0269       159.3034         5.9383         6.2773         0.0021        82.3834
      1984.0750         6.2775        -0.5867         1.0000         8.2010         5.6960         0.0269       159.2981         5.9406         6.2775         0.0021        82.4860
      1984.2000         6.2794        -0.4987         1.0000         8.2010         5.6927         0.0269       159.2505         5.9393         6.2794         0.0021        82.6036
      1984.3250         6.2784        -0.4025         1.0000         8.2010         5.6749         0.0269       159.2763         5.9282         6.2784         0.0021        82.7295
      1984.4500      -999.2500        -0.3269         1.0000         8.2010         4.7156         0.0269      -999.2500      -999.2500         4.8368         0.0021        82.8347
      1984.5750      -999.2500        -0.3045         1.0000         8.2010         3.7707         0.0269      -999.2500      -999.2500         3.3990         0.0021        82.8867
      1984.7000      -999.2500        -0.2781         1.0000         8.2010         3.7707         0.0269      -999.2500      -999.2500         3.3990         0.0021        82.9427
      1984.8250      -999.2500        -0.3037         1.0000         8.2010         3.7707         0.0269      -999.2500      -999.2500         3.3990         0.0021        82.9468
      1984.9500      -999.2500        -0.3127         1.0000         8.2010         3.7707         0.0269      -999.2500      -999.2500         3.3990         0.0021        82.9673
      1985.0750      -999.2500        -0.3424         1.0000         8.2010         3.7707         0.0269      -999.2500      -999.2500         3.3990         0.0021        82.9673
      1985.2000      -999.2500        -0.3720         1.0000         8.2010         3.7707         0.0269      -999.2500      -999.2500         3.3990         0.0021        82.9673
      1985.3250      -999.2500        -0.4016         1.0000         8.2010         3.7707         0.0269      -999.2500      -999.2500         3.3990         0.0021        82.9673
      1985.4500      -999.2500        -0.4312         1.0000         8.2010         3.7707         0.0269      -999.2500      -999.2500         3.3990         0.0021        82.9673
      1985.5750      -999.2500        -0.4609         1.0000         8.2010         3.7707         0.0269      -999.2500      -999.2500         3.3990         0.0021        82.9673
      1985.7000      -999.2500        -0.4905         1.0000         8.2010         3.7707         0.0269      -999.2500      -999.2500         3.3990         0.0021        82.9673
      1985.8250      -999.2500        -0.5201         1.0000         8.2010         3.7707         0.0269      -999.2500      -999.2500         3.3990         0.0021        82.9673
      1985.9500      -999.2500        -0.5379         1.0000         8.2010         3.7707         0.0269      -999.2500      -999.2500         3.3990         0.0021        82.9673
      1986.0750      -999.2500        -0.5379         1.0000         8.2010         3.7707         0.0269      -999.2500      -999.2500         3.3990         0.0021        82.9673
      1986.2000      -999.2500        -0.5379         1.0000         8.2010         3.7707         0.0269      -999.2500      -999.2500         3.3990         0.0021        82.9673
      1986.3250      -999.2500        -0.5379         1.0000         8.2010         3.7707         0.0269      -999.2500      -999.2500         3.3990         0.0021        82.9673
      1986.4500      -999.2500        -0.5379         1.0000         8.2010         3.7707         0.0269      -999.2500      -999.2500         3.3990         0.0021        82.9673
      1986.5750      -999.2500        -0.5379         1.0000         8.2010         3.7707         0.0269      -999.2500      -999.2500         3.3990         0.0021        82.9673
      1986.7000      -999.2500        -0.5379         1.0000         8.2010         3.7707         0.0269      -999.2500      -999.2500         3.3990         0.0021        82.9673
      1986.8250      -999.2500        -0.5379         1.0000         8.2010         3.7707         0.0269      -999.2500      -999.2500         3.3990         0.0021        82.9673
      1986.9500      -999.2500        -0.5379         1.0000         8.2010         3.7707         0.0269      -999.2500      -999.2500         3.3990         0.0021        82.9673
      1987.0750      -999.2500        -0.5379         1.0000         8.2010         3.7707         0.0269      -999.2500      -999.2500         3.3990         0.0021        82.9673
      1987.2000      -999.2500        -0.5379         1.0000         8.2010         3.7707         0.0269      -999.2500      -999.2500         3.3990         0.0021        82.9673
