#----------------------------------------------------------------------------------
#
# APPLICATION : SAHARA 3.2.110
# DATE        : 04/07/2024 19:46:15
# PROJECT     : VH-III
#
#----------------------------------------------------------------------------------
~Version Information
VERS. 2.0 : CWLS LOG ASCII STANDARD - VERSION 2.0
WRAP.  NO : One line per depth step
~Well Information
#MNEMONIC   .UNIT                                           VALUE : DESCRIPTION
#----------------------------------------------------------------------------------
STRT        .M                                           200.0000 : START DEPTH
STOP        .M                                          1624.7500 : STOP DEPTH
STEP        .M                                           125.0000 : STEP
NULL        .                                           -999.2500 : NULL VALUE
COMP        .                                                     : COMPANY
WELL        .                                             PVH-941 : WELL NAME
FLD         .                                                     : FIELD
LOC         .                                                     : LOCATION
PROV        .                                                     : PROVINCE
SRVC        .                                                     : SERVICE COMPANY
DATE        .                                                     : DATE
UWI         .                                          5420002501 : UNIQUE WELL ID
XCOORD      .                                        2539607.2000 : SURFACE X
YCOORD      .                                        4929727.3600 : SURFACE Y
ELEV        .M                                           399.3400 : SURFACE ELEV
~Curve Information
#MNEMONIC   .UNIT                       API CODES           CURVE : DESCRIPTION
#----------------------------------------------------------------------------------
DEPTH       .M                        00 000 00 00                : CURVE # 19
DT          .US/FT                    00 000 00 00                : CURVE # 2
RHOB        .                         00 000 00 00                : CURVE # 3
BS          .                         00 000 00 00                : CURVE # 6
MBVIA       .FR.                      00 000 00 00                : CURVE # 7
CILD        .                         00 000 00 00                : CURVE # 10
HDRS        .OHM.M                    00 000 00 00                : CURVE # 11
MPHIA       .FR.                      00 000 00 00                : CURVE # 12
SPED        .MV                       00 000 00 00                : CURVE # 13
CALA        .                         00 000 00 00                : CURVE # 20
DPHI        .FR.                      00 000 00 00                : CURVE # 21
HDCN        .                         00 000 00 00                : CURVE # 22
LITHO_VHIII .                         00 000 00 00                : CURVE # 23
MFFIA       .FR.                      00 000 00 00                : CURVE # 24
PE          .                         00 000 00 00                : CURVE # 25
SPB         .MV                       00 000 00 00                : CURVE # 26
SPHI        .FR.                      00 000 00 00                : CURVE # 27
~A        DEPTH             DT           RHOB             BS          MBVIA           CILD           HDRS          MPHIA           SPED           CALA           DPHI           HDCN    LITHO_VHIII          MFFIA             PE            SPB           SPHI
# ...
       264.0000       164.6220      -999.2500         8.5000      -999.2500       601.3591         1.6629      -999.2500        -2.4037         9.0467      -999.2500       601.3482      -999.2500      -999.2500      -999.2500        69.6582      -999.2500
       264.1250       165.1030      -999.2500         8.5000      -999.2500       552.7996         1.8135      -999.2500        -2.4848         8.9812      -999.2500       552.8014      -999.2500      -999.2500      -999.2500        69.6582      -999.2500
       264.2500       164.7430      -999.2500         8.5000      -999.2500       484.6743         2.0673      -999.2500        -2.3637         8.8815      -999.2500       484.6749      -999.2500      -999.2500      -999.2500        69.6696      -999.2500
       264.3750       164.3980      -999.2500         8.5000      -999.2500       450.2913         2.2214      -999.2500        -2.3026         8.8972      -999.2500       450.2864      -999.2500      -999.2500      -999.2500        69.6211      -999.2500
       264.5000       164.4230      -999.2500         8.5000      -999.2500       447.4473         2.2349      -999.2500        -2.2815         8.8758      -999.2500       447.4540      -999.2500      -999.2500      -999.2500        69.5325      -999.2500
       264.6250       164.5233      -999.2500         8.5000      -999.2500       453.5359         2.2049      -999.2500        -2.3333         8.6864      -999.2500       453.5300      -999.2500      -999.2500      -999.2500        69.3710      -999.2500
       264.7500       164.6240      -999.2500         8.5000      -999.2500       446.3844         2.2404      -999.2500        -2.5166         8.5254      -999.2500       446.3878      -999.2500      -999.2500      -999.2500        69.0780      -999.2500
       264.8750       164.7240      -999.2500         8.5000      -999.2500       430.4436         2.3238      -999.2500        -2.7257         8.4030      -999.2500       430.4459      -999.2500      -999.2500      -999.2500        68.7593      -999.2500
       265.0000       164.8240      -999.2500         8.5000      -999.2500       409.7185         2.4407      -999.2500        -2.9005         8.2776      -999.2500       409.7132      -999.2500      -999.2500      -999.2500        68.4748      -999.2500
       265.1250       164.0891      -999.2500         8.5000      -999.2500       394.9188         2.5331      -999.2500        -2.9223         8.2648      -999.2500       394.9215      -999.2500      -999.2500      -999.2500        68.3434      -999.2500
       265.2500       162.2140      -999.2500         8.5000      -999.2500       378.6132         2.6414      -999.2500        -2.8555         8.2463      -999.2500       378.6089      -999.2500      -999.2500      -999.2500        68.3005      -999.2500
       265.3750       160.3396      -999.2500         8.5000      -999.2500       377.4814         2.6492      -999.2500        -2.8058         8.2149      -999.2500       377.4814      -999.2500      -999.2500      -999.2500        68.2405      -999.2500
       265.5000       158.4650      -999.2500         8.5000      -999.2500       387.7472         2.5790      -999.2500        -2.7819         8.2149      -999.2500       387.7479      -999.2500      -999.2500      -999.2500        68.1547      -999.2500
       265.6250       156.5901      -999.2500         8.5000      -999.2500       409.8339         2.4406      -999.2500        -2.8366         8.2163      -999.2500       409.8304      -999.2500      -999.2500      -999.2500        67.9903      -999.2500
       265.7500       158.1600      -999.2500         8.5000      -999.2500       422.4287         2.3673      -999.2500        -2.8827         8.2520      -999.2500       422.4298      -999.2500      -999.2500      -999.2500        67.8345      -999.2500
       265.8750       164.8979      -999.2500         8.5000      -999.2500       420.5135         2.3781      -999.2500        -2.8260         8.3132      -999.2500       420.5138      -999.2500      -999.2500      -999.2500        67.7817      -999.2500
       266.0000       171.6360      -999.2500         8.5000      -999.2500       408.0966         2.4504      -999.2500        -2.7034         8.4257      -999.2500       408.0891      -999.2500      -999.2500      -999.2500        67.7945      -999.2500
       266.1250       178.3731      -999.2500         8.5000      -999.2500       397.0908         2.5184      -999.2500        -2.5980         8.5938      -999.2500       397.0900      -999.2500      -999.2500      -999.2500        67.7902      -999.2500
       266.2500       185.1110      -999.2500         8.5000      -999.2500       412.0129         2.4288      -999.2500        -2.5469         8.9242      -999.2500       412.0200      -999.2500      -999.2500      -999.2500        67.7316      -999.2500
       266.3750       191.8489      -999.2500         8.5000      -999.2500       448.6755         2.2313      -999.2500        -2.5259         9.5239      -999.2500       448.6795      -999.2500      -999.2500      -999.2500        67.6430      -999.2500
       266.5000       198.5860      -999.2500         8.5000      -999.2500       483.7695         2.0671      -999.2500        -2.5334        10.4368      -999.2500       483.7669      -999.2500      -999.2500      -999.2500        67.5258      -999.2500
       266.6250       205.3241      -999.2500         8.5000      -999.2500       516.0716         1.9384      -999.2500        -2.5109        11.6503      -999.2500       516.0778      -999.2500      -999.2500      -999.2500        67.4387      -999.2500
       266.7500       212.0620      -999.2500         8.5000      -999.2500       538.0407         1.8587      -999.2500        -2.4855        12.7755      -999.2500       538.0350      -999.2500      -999.2500      -999.2500        67.3544      -999.2500
       266.8750       218.7999      -999.2500         8.5000      -999.2500       543.8113         1.8389      -999.2500        -2.4131        13.3666      -999.2500       543.8124      -999.2500      -999.2500      -999.2500        67.3172      -999.2500
       267.0000       195.1610      -999.2500         8.5000      -999.2500       546.1198         1.8311      -999.2500        -2.2547        13.7583      -999.2500       546.1129      -999.2500      -999.2500      -999.2500        67.3658      -999.2500
       267.1250       163.8694      -999.2500         8.5000      -999.2500       557.6824         1.7934      -999.2500        -2.0722        14.1314      -999.2500       557.6910      -999.2500      -999.2500      -999.2500        67.4386      -999.2500
       267.2500       144.7680      -999.2500         8.5000      -999.2500       580.6759         1.7229      -999.2500        -1.9296        14.3024      -999.2500       580.6774      -999.2500      -999.2500      -999.2500        67.4715      -999.2500
       267.3750       144.3180      -999.2500         8.5000      -999.2500       619.0189         1.6164      -999.2500        -1.8214        14.4178      -999.2500       619.0240      -999.2500      -999.2500      -999.2500        67.4701      -999.2500
       267.5000       144.0080      -999.2500         8.5000      -999.2500       658.4579         1.5187      -999.2500        -1.6617        13.9349      -999.2500       658.4533      -999.2500      -999.2500      -999.2500        67.5201      -999.2500
       267.6250       143.9180      -999.2500         8.5000      -999.2500       670.3094         1.4918      -999.2500        -1.3820        12.9223      -999.2500       670.3013      -999.2500      -999.2500      -999.2500        67.6902      -999.2500
       267.7500       143.9680      -999.2500         8.5000      -999.2500       668.4277         1.4961      -999.2500        -1.0194        11.7614      -999.2500       668.4352      -999.2500      -999.2500      -999.2500        67.9432      -999.2500
       267.8750       144.0188      -999.2500         8.5000      -999.2500       667.4899         1.4981      -999.2500        -0.6395        10.8484      -999.2500       667.4947      -999.2500      -999.2500      -999.2500        68.2133      -999.2500
