#----------------------------------------------------------------------------------
#
# APPLICATION : SAHARA 3.2.110
# DATE        : 04/07/2024 19:46:15
# PROJECT     : VH-III
#
#----------------------------------------------------------------------------------
~Version Information
VERS. 2.0 : CWLS LOG ASCII STANDARD - VERSION 2.0
WRAP.  NO : One line per depth step
~Well Information
#MNEMONIC   .UNIT                                           VALUE : DESCRIPTION
#----------------------------------------------------------------------------------
STRT        .M                                           200.0000 : START DEPTH
STOP        .M                                          1624.7500 : STOP DEPTH
STEP        .M                                           125.0000 : STEP
NULL        .                                           -999.2500 : NULL VALUE
COMP        .                                                     : COMPANY
WELL        .                                             PVH-941 : WELL NAME
FLD         .                                                     : FIELD
LOC         .                                                     : LOCATION
PROV        .                                                     : PROVINCE
SRVC        .                                                     : SERVICE COMPANY
DATE        .                                                     : DATE
UWI         .                                          5420002501 : UNIQUE WELL ID
XCOORD      .                                        2539607.2000 : SURFACE X
YCOORD      .                                        4929727.3600 : SURFACE Y
ELEV        .M                                           399.3400 : SURFACE ELEV
~Curve Information
#MNEMONIC   .UNIT                       API CODES           CURVE : DESCRIPTION
#----------------------------------------------------------------------------------
DEPTH       .M                        00 000 00 00                : CURVE # 19
DT          .US/FT                    00 000 00 00                : CURVE # 2
RHOB        .                         00 000 00 00                : CURVE # 3
BS          .                         00 000 00 00                : CURVE # 6
MBVIA       .FR.                      00 000 00 00                : CURVE # 7
CILD        .                         00 000 00 00                : CURVE # 10
HDRS        .OHM.M                    00 000 00 00                : CURVE # 11
MPHIA       .FR.                      00 000 00 00                : CURVE # 12
SPED        .MV                       00 000 00 00                : CURVE # 13
CALA        .                         00 000 00 00                : CURVE # 20
DPHI        .FR.                      00 000 00 00                : CURVE # 21
HDCN        .                         00 000 00 00                : CURVE # 22
LITHO_VHIII .                         00 000 00 00                : CURVE # 23
MFFIA       .FR.                      00 000 00 00                : CURVE # 24
PE          .                         00 000 00 00                : CURVE # 25
SPB         .MV                       00 000 00 00                : CURVE # 26
SPHI        .FR.                      00 000 00 00                : CURVE # 27
~A        DEPTH             DT           RHOB             BS          MBVIA           CILD           HDRS          MPHIA           SPED           CALA           DPHI           HDCN    LITHO_VHIII          MFFIA             PE            SPB           SPHI
# ...
      1524.0000        98.1260         2.3094         8.5000         0.0002       424.8088         2.3540         0.0005        -2.7257         8.6821         0.2064       424.8147         1.0000         0.0004         2.6365        79.2331         0.3341
      1524.1250        96.6954         2.3013         8.5000         0.0004       419.3178         2.3849         0.0014        -2.4130         8.6835         0.2113       419.3175         1.0000         0.0009         2.5974        79.5458         0.3257
      1524.2500        95.5750         2.2877         8.5000         0.0008       414.4563         2.4128         0.0024        -1.9347         8.7049         0.2196       414.4522         1.0000         0.0016         2.6126        80.0241         0.3133
      1524.3750        94.8002         2.2775         8.5000         0.0014       419.8287         2.3821         0.0035        -1.3531         8.7135         0.2258       419.8304         1.0000         0.0021         2.6661        80.6057         0.3026
      1524.5000        93.3250         2.2633         8.5000         0.0022       433.7266         2.3056         0.0047        -0.9145         8.6935         0.2343       433.7337         1.0000         0.0026         2.6602        81.0443         0.2960
      1524.6250        92.4249         2.2677         8.5000         0.0034       430.3811         2.3246         0.0066        -1.0577         8.6579         0.2317       430.3878         1.0000         0.0032         2.5947        80.9011         0.2923
      1524.7500        90.1730         2.2759         8.5000         0.0052       390.9687         2.5671         0.0094        -1.7407         8.6222         0.2267       390.9715         1.0000         0.0042         2.5317        80.2181         0.2784
      1524.8750        85.2942         2.2902         8.5000         0.0080       320.3342         3.1422         0.0131        -2.6344         8.6208         0.2180       320.3360         1.0000         0.0051         2.4700        79.3244         0.2539
      1525.0000        80.4130         2.3218         8.5000         0.0129       245.8331         4.0678         0.0183        -3.4824         8.6422         0.1989       245.8335         1.0000         0.0054         2.4393        78.4764         0.2204
      1525.1250        75.5318         2.3486         8.5000         0.0203       199.2904         5.0277         0.0251        -4.1729         8.6721         0.1827       199.2904         1.0000         0.0048         2.3938        77.7859         0.1729
      1525.2500        72.5650         2.3478         8.5000         0.0269       184.4254         5.4222         0.0312        -4.6490         8.6964         0.1832       184.4247         1.0000         0.0042         2.3298        77.3098         0.1392
      1525.3750        76.0186         2.3387         8.5000         0.0307       195.3793         5.1237         0.0349        -4.8509         8.6992         0.1887       195.3785         1.0000         0.0041         2.3261        77.1079         0.1370
      1525.5000        81.8450         2.3281         8.5000         0.0315       219.8430         4.5487         0.0361        -4.9355         8.6764         0.1951       219.8417         1.0000         0.0046         2.3827        77.0233         0.1568
      1525.6250        87.6714         2.3087         8.5000         0.0298       242.4914         4.1262         0.0350        -4.8657         8.6978         0.2068       242.4902         1.0000         0.0052         2.4326        77.0931         0.1839
      1525.7500        91.1350         2.2969         8.5000         0.0268       256.5824         3.8983         0.0324        -4.7046         8.7021         0.2140       256.5800         1.0000         0.0056         2.5120        77.2542         0.2219
      1525.8750        90.4595         2.2869         8.5000         0.0240       263.4580         3.7958         0.0295        -4.3332         8.7020         0.2201       263.4576         1.0000         0.0055         2.5539        77.6255         0.2535
      1526.0000        88.8840         2.2846         8.5000         0.0220       263.2965         3.7980         0.0276        -3.9532         8.6992         0.2214       263.2976         1.0000         0.0056         2.6013        78.0056         0.2654
      1526.1250        88.4839         2.2858         8.5000         0.0203       252.2868         3.9656         0.0264        -3.7048         8.6821         0.2207       252.2884         1.0000         0.0061         2.6232        78.2540         0.2531
      1526.2500        88.0840         2.2839         8.5000         0.0176       238.1612         4.2006         0.0243        -3.6193         8.6479         0.2219       238.1593         1.0000         0.0066         2.6442        78.3395         0.2410
      1526.3750        87.8040         2.2800         8.5000         0.0141       232.4136         4.3027         0.0209        -3.5895         8.6137         0.2243       232.4149         1.0000         0.0069         2.6620        78.3693         0.2396
      1526.5000        88.7640         2.2730         8.5000         0.0107       239.3432         4.1781         0.0174        -3.8342         8.6194         0.2285       239.3410         1.0000         0.0067         2.6557        78.1246         0.2433
      1526.6250        89.9393         2.2720         8.5000         0.0091       251.8497         3.9715         0.0157        -4.2460         8.6251         0.2292       251.8500         1.0000         0.0065         2.6640        77.7128         0.2514
      1526.7500        90.9105         2.2743         8.5000         0.0089       261.2837         3.8277         0.0156        -4.7377         8.6451         0.2276       261.2833         1.0000         0.0067         2.7004        77.2211         0.2691
      1526.8750        91.5773         2.2865         8.5000         0.0092       267.9042         3.7329         0.0162        -5.0412         8.6265         0.2203       267.9065         1.0000         0.0070         2.7276        76.9176         0.2850
      1527.0000        92.2440         2.2956         8.5000         0.0090       275.6264         3.6281         0.0163        -4.9500         8.6251         0.2148       275.6239         1.0000         0.0072         2.7672        77.0088         0.2864
      1527.1250        93.2192         2.2979         8.5000         0.0083       289.3979         3.4569         0.0156        -4.5015         8.6237         0.2134       289.3977         1.0000         0.0073         2.7674        77.4574         0.2877
      1527.2500        94.3840         2.3031         8.5000         0.0077       305.9594         3.2698         0.0151        -3.9646         8.6108         0.2102       305.9589         1.0000         0.0075         2.7684        77.9942         0.2931
      1527.3750        95.3089         2.3111         8.5000         0.0075       316.5324         3.1594         0.0153        -3.5816         8.5682         0.2054       316.5314         1.0000         0.0077         2.7612        78.3772         0.2989
      1527.5000        96.3230         2.3238         8.5000         0.0079       312.2853         3.2022         0.0160        -3.7104         8.5682         0.1977       312.2842         1.0000         0.0081         2.7151        78.2484         0.3035
      1527.6250        93.8424         2.3335         8.5000         0.0089       287.7020         3.4825         0.0173        -4.4539         8.5809         0.1918       287.7036         1.0000         0.0084         2.6478        77.5049         0.2992
      1527.7500        91.3630         2.3398         8.5000         0.0105       248.8773         4.0381         0.0192        -5.5570         8.5995         0.1880       248.8763         1.0000         0.0087         2.5961        76.4018         0.2854
      1527.8750        88.8836         2.3412         8.5000         0.0123       205.1413         4.8991         0.0212        -6.6437         8.6308         0.1872       205.1416         1.0000         0.0089         2.5181        75.3151         0.2688
