#----------------------------------------------------------------------------------
#
# APPLICATION : SAHARA 3.2.110
# DATE        : 04/07/2024 19:46:15
# PROJECT     : VH-III
#
#----------------------------------------------------------------------------------
~Version Information
VERS. 2.0 : CWLS LOG ASCII STANDARD - VERSION 2.0
WRAP.  NO : One line per depth step
~Well Information
#MNEMONIC   .UNIT                                           VALUE : DESCRIPTION
#----------------------------------------------------------------------------------
STRT        .M                                           200.0000 : START DEPTH
STOP        .M                                          1624.7500 : STOP DEPTH
STEP        .M                                           125.0000 : STEP
NULL        .                                           -999.2500 : NULL VALUE
COMP        .                                                     : COMPANY
WELL        .                                             PVH-941 : WELL NAME
FLD         .                                                     : FIELD
LOC         .                                                     : LOCATION
PROV        .                                                     : PROVINCE
SRVC        .                                                     : SERVICE COMPANY
DATE        .                                                     : DATE
UWI         .                                          5420002501 : UNIQUE WELL ID
XCOORD      .                                        2539607.2000 : SURFACE X
YCOORD      .                                        4929727.3600 : SURFACE Y
ELEV        .M                                           399.3400 : SURFACE ELEV
~Curve Information
#MNEMONIC   .UNIT                       API CODES           CURVE : DESCRIPTION
#----------------------------------------------------------------------------------
DEPTH       .M                        00 000 00 00                : CURVE # 19
DT          .US/FT                    00 000 00 00                : CURVE # 2
RHOB        .                         00 000 00 00                : CURVE # 3
BS          .                         00 000 00 00                : CURVE # 6
MBVIA       .FR.                      00 000 00 00                : CURVE # 7
CILD        .                         00 000 00 00                : CURVE # 10
HDRS        .OHM.M                    00 000 00 00                : CURVE # 11
MPHIA       .FR.                      00 000 00 00                : CURVE # 12
SPED        .MV                       00 000 00 00                : CURVE # 13
CALA        .                         00 000 00 00                : CURVE # 20
DPHI        .FR.                      00 000 00 00                : CURVE # 21
HDCN        .                         00 000 00 00                : CURVE # 22
LITHO_VHIII .                         00 000 00 00                : CURVE # 23
MFFIA       .FR.                      00 000 00 00                : CURVE # 24
PE          .                         00 000 00 00                : CURVE # 25
SPB         .MV                       00 000 00 00                : CURVE # 26
SPHI        .FR.                      00 000 00 00                : CURVE # 27
~A        DEPTH             DT           RHOB             BS          MBVIA           CILD           HDRS          MPHIA           SPED           CALA           DPHI           HDCN    LITHO_VHIII          MFFIA             PE            SPB           SPHI
# ...
       624.0000       114.8020      -999.2500         8.5000      -999.2500       462.7273         2.1611      -999.2500       -25.0310         8.3858      -999.2500       462.7196        -1.0000      -999.2500      -999.2500        53.3972      -999.2500
       624.1250       115.3520      -999.2500         8.5000      -999.2500       466.9548         2.1415      -999.2500       -24.9079         8.4072      -999.2500       466.9587        -1.0000      -999.2500      -999.2500        53.5469      -999.2500
       624.2500       115.4420      -999.2500         8.5000      -999.2500       469.8061         2.1285      -999.2500       -24.6474         8.4286      -999.2500       469.8086        -1.0000      -999.2500      -999.2500        53.8337      -999.2500
       624.3750       115.1113      -999.2500         8.5000      -999.2500       472.2739         2.1174      -999.2500       -24.2627         8.4157      -999.2500       472.2668        -1.0000      -999.2500      -999.2500        54.2449      -999.2500
       624.5000       113.8000      -999.2500         8.5000      -999.2500       473.8887         2.1102      -999.2500       -23.7207         8.3915      -999.2500       473.8789        -1.0000      -999.2500      -999.2500        54.8134      -999.2500
       624.6250       113.0336      -999.2500         8.5000      -999.2500       474.1921         2.1089      -999.2500       -23.2045         8.3901      -999.2500       474.1863        -1.0000      -999.2500      -999.2500        55.3562      -999.2500
       624.7500       112.5375      -999.2500         8.5000      -999.2500       474.6203         2.1069      -999.2500       -22.9455         8.3887      -999.2500       474.6278        -1.0000      -999.2500      -999.2500        55.6416      -999.2500
       624.8750       112.2971      -999.2500         8.5000      -999.2500       476.9205         2.0968      -999.2500       -23.0252         8.4043      -999.2500       476.9138        -1.0000      -999.2500      -999.2500        55.5883      -999.2500
       625.0000       111.0750      -999.2500         8.5000      -999.2500       481.7188         2.0759      -999.2500       -23.2736         8.4143      -999.2500       481.7166        -1.0000      -999.2500      -999.2500        55.3664      -999.2500
       625.1250       109.6434      -999.2500         8.5000      -999.2500       486.3534         2.0561      -999.2500       -23.3734         8.4428      -999.2500       486.3529         1.0000      -999.2500      -999.2500        55.2930      -999.2500
       625.2500       108.7120      -999.2500         8.5000      -999.2500       486.5840         2.0552      -999.2500       -23.4503         8.4913      -999.2500       486.5942         1.0000      -999.2500      -999.2500        55.2426      -999.2500
       625.3750       107.4507      -999.2500         8.5000      -999.2500       480.9611         2.0792      -999.2500       -23.2015         8.5440      -999.2500       480.9633         1.0000      -999.2500      -999.2500        55.5180      -999.2500
       625.5000       107.0290      -999.2500         8.5000      -999.2500       470.0132         2.1276      -999.2500       -22.5236         8.6251      -999.2500       470.0070         1.0000      -999.2500      -999.2500        56.2223      -999.2500
       625.6250       110.6769      -999.2500         8.5000      -999.2500       457.3457         2.1866      -999.2500       -20.6190         8.7320      -999.2500       457.3482        -1.0000      -999.2500      -999.2500        58.1545      -999.2500
       625.7500       114.3235      -999.2500         8.5000      -999.2500       454.9929         2.1979      -999.2500       -17.0378         8.9100      -999.2500       454.9940        -1.0000      -999.2500      -999.2500        61.7612      -999.2500
       625.8750       117.9701      -999.2500         8.5000      -999.2500       480.9488         2.0808      -999.2500       -12.1673         9.2505      -999.2500       480.9464         1.0000      -999.2500      -999.2500        66.6581      -999.2500
       626.0000       121.6170      -999.2500         8.5000      -999.2500       547.0759         1.8279      -999.2500        -7.2928         9.7247      -999.2500       547.0646         1.0000      -999.2500      -999.2500        71.5591      -999.2500
       626.1250       125.2547      -999.2500         8.5000      -999.2500       632.2835         1.5839      -999.2500        -4.1758        10.2675      -999.2500       632.2783         1.0000      -999.2500      -999.2500        74.7033      -999.2500
       626.2500       125.5940      -999.2500         8.5000      -999.2500       688.3147         1.4534      -999.2500        -2.5329        10.5765      -999.2500       688.3284         1.0000      -999.2500      -999.2500        76.3719      -999.2500
       626.3750       121.0488      -999.2500         8.5000      -999.2500       697.1881         1.4344      -999.2500        -1.7823        10.5394      -999.2500       697.2036         1.0000      -999.2500      -999.2500        77.1489      -999.2500
       626.5000       116.5030      -999.2500         8.5000      -999.2500       662.2955         1.5099      -999.2500        -1.3461        10.4425      -999.2500       662.3043         1.0000      -999.2500      -999.2500        77.6117      -999.2500
       626.6250       109.8008      -999.2500         8.5000      -999.2500       602.7037         1.6612      -999.2500        -1.0957        10.3186      -999.2500       602.7047         1.0000      -999.2500      -999.2500        77.8886      -999.2500
       626.7500       112.4535      -999.2500         8.5000      -999.2500       550.3920         1.8186      -999.2500        -0.9110        10.3087      -999.2500       550.3974         1.0000      -999.2500      -999.2500        78.0997      -999.2500
       626.8750       115.1062      -999.2500         8.5000      -999.2500       523.1858         1.9116      -999.2500        -0.8421        10.4483      -999.2500       523.1984         1.0000      -999.2500      -999.2500        78.1951      -999.2500
       627.0000       117.7590      -999.2500         8.5000      -999.2500       522.2750         1.9147      -999.2500        -0.7504        10.5394      -999.2500       522.2639         1.0000      -999.2500      -999.2500        78.3133      -999.2500
       627.1250       120.4028      -999.2500         8.5000      -999.2500       535.2313         1.8685      -999.2500        -0.7617        10.5151      -999.2500       535.2388         1.0000      -999.2500      -999.2500        78.3286      -999.2500
       627.2500       120.8585      -999.2500         8.5000      -999.2500       546.8025         1.8289      -999.2500        -0.5755        10.4140      -999.2500       546.8000         1.0000      -999.2500      -999.2500        78.5412      -999.2500
       627.3750       118.0951      -999.2500         8.5000      -999.2500       552.5356         1.8098      -999.2500        -0.2608        10.2744      -999.2500       552.5275         1.0000      -999.2500      -999.2500        78.8823      -999.2500
       627.5000       115.3310      -999.2500         8.5000      -999.2500       553.0056         1.8083      -999.2500         0.1025        10.0665      -999.2500       553.0045         1.0000      -999.2500      -999.2500        79.2721      -999.2500
       627.6250       112.5679      -999.2500         8.5000      -999.2500       553.9489         1.8052      -999.2500         0.3043         9.8258      -999.2500       553.9600         1.0000      -999.2500      -999.2500        79.5004      -999.2500
       627.7500       110.8695      -999.2500         8.5000      -999.2500       564.9629         1.7703      -999.2500         0.0315         9.7589      -999.2500       564.9705         1.0000      -999.2500      -999.2500        79.2542      -999.2500
       627.8750       131.6095      -999.2500         8.5000      -999.2500       593.4803         1.6857      -999.2500        -0.5240         9.8757      -999.2500       593.4909         1.0000      -999.2500      -999.2500        78.7250      -999.2500
