#----------------------------------------------------------------------------------
#
# APPLICATION : SAHARA 3.2.110
# DATE        : 04/07/2024 19:46:17
# PROJECT     : VH-III
#
#----------------------------------------------------------------------------------
~Version Information
VERS. 2.0 : CWLS LOG ASCII STANDARD - VERSION 2.0
WRAP.  NO : One line per depth step
~Well Information
#MNEMONIC   .UNIT                                           VALUE : DESCRIPTION
#----------------------------------------------------------------------------------
STRT        .M                                           313.4750 : START DEPTH
STOP        .M                                          1692.9750 : STOP DEPTH
STEP        .M                                           125.0000 : STEP
NULL        .                                           -999.2500 : NULL VALUE
COMP        .                                                     : COMPANY
WELL        .                                            PVH-1007 : WELL NAME
FLD         .                                                     : FIELD
LOC         .                                                     : LOCATION
PROV        .                                                     : PROVINCE
SRVC        .                                                     : SERVICE COMPANY
DATE        .                                                     : DATE
UWI         .                                          5420000089 : UNIQUE WELL ID
XCOORD      .                                        2539987.0400 : SURFACE X
YCOORD      .                                        4929711.0400 : SURFACE Y
ELEV        .M                                           417.7500 : SURFACE ELEV
~Curve Information
#MNEMONIC   .UNIT                       API CODES           CURVE : DESCRIPTION
#----------------------------------------------------------------------------------
DEPTH       .M                        00 000 00 00                : CURVE # 19
HMRS        .OHM.M                    00 000 00 00                : CURVE # 2
SPED        .MV                       00 000 00 00                : CURVE # 4
CALA        .                         00 000 00 00                : CURVE # 5
MBVIA       .FR.                      00 000 00 00                : CURVE # 6
HDCN        .                         00 000 00 00                : CURVE # 11
HT90        .OHM.M                    00 000 00 00                : CURVE # 12
MPHIA       .FR.                      00 000 00 00                : CURVE # 13
CILD        .                         00 000 00 00                : CURVE # 20
HDRS        .OHM.M                    00 000 00 00                : CURVE # 21
HT24        .OHM.M                    00 000 00 00                : CURVE # 22
LITHO_VHIII .                         00 000 00 00                : CURVE # 23
MFFIA       .FR.                      00 000 00 00                : CURVE # 24
SPB         .MV                       00 000 00 00                : CURVE # 25
~A        DEPTH           HMRS           SPED           CALA          MBVIA           HDCN           HT90          MPHIA           CILD           HDRS           HT24    LITHO_VHIII          MFFIA            SPB
# ...
       864.4750         1.3389         0.0965         9.3070      -999.2500       743.1599         1.3456      -999.2500       743.1679         1.3456         1.3337         1.0000      -999.2500        79.9934
       864.6000         1.3399         0.0163         9.3614      -999.2500       747.6370         1.3375      -999.2500       747.6636         1.3375         1.3417         1.0000      -999.2500        79.9132
       864.7250         1.3360        -0.0138         9.3812      -999.2500       752.5369         1.3288      -999.2500       752.5387         1.3289         1.3417         1.0000      -999.2500        79.8830
       864.8500         1.3159        -0.0093         9.2690      -999.2500       762.7717         1.3110      -999.2500       762.7968         1.3110         1.3198         1.0000      -999.2500        79.8876
       864.9750         1.2711         0.0112         9.1243      -999.2500       784.4929         1.2749      -999.2500       784.5014         1.2749         1.2682         1.0000      -999.2500        79.9081
       865.1000         1.2079         0.0745         9.0908      -999.2500       818.7670         1.2213      -999.2500       818.7996         1.2213         1.1973         1.0000      -999.2500        79.9714
       865.2250         1.1563         0.0971         9.1444      -999.2500       850.7881         1.1754      -999.2500       850.7969         1.1754         1.1414         1.0000      -999.2500        79.9940
       865.3500         1.1474         0.0422         9.2014      -999.2500       854.1170         1.1709      -999.2500       854.0959         1.1709         1.1293         1.0000      -999.2500        79.9391
       865.4750         1.1984        -0.0628         9.2377      -999.2500       814.8627         1.2278      -999.2500       814.8738         1.2278         1.1759         1.0000      -999.2500        79.8342
       865.6000         1.3079        -0.1958         9.1867      -999.2500       743.1319         1.3457      -999.2500       743.1077         1.3457         1.2792         1.0000      -999.2500        79.7011
       865.7250         1.4476        -0.3288         9.1065      -999.2500       669.4685         1.4952      -999.2500       669.4582         1.4952         1.4118         1.0000      -999.2500        79.5682
       865.8500         1.5640        -0.4430         9.0060      -999.2500       621.7269         1.6091      -999.2500       621.7284         1.6091         1.5298         1.0000      -999.2500        79.4538
       865.9750         1.6355        -0.5413         8.9940      -999.2500       603.2449         1.6578      -999.2500       603.2457         1.6578         1.6183         1.0000      -999.2500        79.3556
       866.1000         1.6714        -0.5381         9.0570      -999.2500       599.9967         1.6667      -999.2500       599.9880         1.6667         1.6752         1.0000      -999.2500        79.3588
       866.2250         1.6863        -0.4247         9.1338      -999.2500       601.1052         1.6636      -999.2500       601.0988         1.6636         1.7048         1.0000      -999.2500        79.4722
       866.3500         1.6866        -0.2940         9.1438      -999.2500       604.3564         1.6546      -999.2500       604.3618         1.6546         1.7130         1.0000      -999.2500        79.6029
       866.4750         1.6709        -0.1653         9.1587      -999.2500       607.1226         1.6471      -999.2500       607.1289         1.6471         1.6905         1.0000      -999.2500        79.7316
       866.6000         1.6464        -0.0660         9.1468      -999.2500       613.0373         1.6312      -999.2500       613.0457         1.6312         1.6588         1.0000      -999.2500        79.8309
       866.7250         1.6311         0.0007         9.1636      -999.2500       626.0842         1.5973      -999.2500       626.0898         1.5973         1.6592         1.0000      -999.2500        79.8976
       866.8500         1.6332         0.0138         9.1234      -999.2500       634.6373         1.5757      -999.2500       634.6395         1.5757         1.6823         1.0000      -999.2500        79.9108
       866.9750         1.6480        -0.0290         9.0809      -999.2500       629.8033         1.5879      -999.2500       629.7969         1.5879         1.6995         1.0000      -999.2500        79.8679
       867.1000         1.6605        -0.1226         9.0051      -999.2500       617.7017         1.6189      -999.2500       617.7034         1.6189         1.6953         1.0000      -999.2500        79.7743
       867.2250         1.6528        -0.2335         8.9160      -999.2500       611.0906         1.6364      -999.2500       611.0886         1.6364         1.6661         1.0000      -999.2500        79.6634
       867.3500         1.6322        -0.3512         8.8326      -999.2500       611.4652         1.6354      -999.2500       611.4748         1.6354         1.6298         1.0000      -999.2500        79.5457
       867.4750         1.6144        -0.4709         8.8236      -999.2500       615.2924         1.6252      -999.2500       615.3034         1.6252         1.6059         1.0000      -999.2500        79.4260
       867.6000         1.6075        -0.5664         8.8809      -999.2500       617.8929         1.6184      -999.2500       617.8942         1.6184         1.5989         1.0000      -999.2500        79.3305
       867.7250         1.6043        -0.6066         8.9384      -999.2500       618.3616         1.6172      -999.2500       618.3629         1.6172         1.5941         1.0000      -999.2500        79.2902
       867.8500         1.5915        -0.6041         8.9418      -999.2500       622.7856         1.6057      -999.2500       622.7821         1.6057         1.5803         1.0000      -999.2500        79.2928
       867.9750         1.5674        -0.5856         8.8985      -999.2500       635.6052         1.5734      -999.2500       635.6158         1.5734         1.5627         1.0000      -999.2500        79.3113
       868.1000         1.5355        -0.5323         8.8554      -999.2500       655.0568         1.5266      -999.2500       655.0504         1.5266         1.5428         1.0000      -999.2500        79.3646
       868.2250         1.4875        -0.4723         8.8372      -999.2500       681.4233         1.4679      -999.2500       681.4268         1.4679         1.5035         1.0000      -999.2500        79.4246
       868.3500         1.4110        -0.3817         8.8328      -999.2500       718.2737         1.3930      -999.2500       718.2816         1.3930         1.4257         1.0000      -999.2500        79.5153
       868.4750         1.3113        -0.3170         8.8481      -999.2500       767.7764         1.3032      -999.2500       767.7640         1.3033         1.3178         1.0000      -999.2500        79.5799
       868.6000         1.2184        -0.3325         8.8904      -999.2500       821.6614         1.2170      -999.2500       821.6927         1.2170         1.2194         1.0000      -999.2500        79.5644
       868.7250         1.1756        -0.4355         8.8800      -999.2500       850.6417         1.1755      -999.2500       850.6662         1.1755         1.1756         1.0000      -999.2500        79.4614
       868.8500         1.1892        -0.5825         8.8771      -999.2500       840.0404         1.1907      -999.2500       840.0364         1.1907         1.1880         1.0000      -999.2500        79.3144
       868.9750         1.2482        -0.7735         8.8280      -999.2500       800.1816         1.2503      -999.2500       800.1706         1.2502         1.2466         1.0000      -999.2500        79.1234
       869.1000         1.3316        -1.0060         8.8946      -999.2500       750.7159         1.3321      -999.2500       750.6944         1.3321         1.3312         1.0000      -999.2500        78.8909
