#----------------------------------------------------------------------------------
#
# APPLICATION : SAHARA 3.2.110
# DATE        : 04/07/2024 19:46:15
# PROJECT     : VH-III
#
#----------------------------------------------------------------------------------
~Version Information
VERS. 2.0 : CWLS LOG ASCII STANDARD - VERSION 2.0
WRAP.  NO : One line per depth step
~Well Information
#MNEMONIC   .UNIT                                           VALUE : DESCRIPTION
#----------------------------------------------------------------------------------
STRT        .M                                           200.0000 : START DEPTH
STOP        .M                                          1624.7500 : STOP DEPTH
STEP        .M                                           125.0000 : STEP
NULL        .                                           -999.2500 : NULL VALUE
COMP        .                                                     : COMPANY
WELL        .                                             PVH-941 : WELL NAME
FLD         .                                                     : FIELD
LOC         .                                                     : LOCATION
PROV        .                                                     : PROVINCE
SRVC        .                                                     : SERVICE COMPANY
DATE        .                                                     : DATE
UWI         .                                          5420002501 : UNIQUE WELL ID
XCOORD      .                                        2539607.2000 : SURFACE X
YCOORD      .                                        4929727.3600 : SURFACE Y
ELEV        .M                                           399.3400 : SURFACE ELEV
~Curve Information
#MNEMONIC   .UNIT                       API CODES           CURVE : DESCRIPTION
#----------------------------------------------------------------------------------
DEPTH       .M                        00 000 00 00                : CURVE # 19
DT          .US/FT                    00 000 00 00                : CURVE # 2
RHOB        .                         00 000 00 00                : CURVE # 3
BS          .                         00 000 00 00                : CURVE # 6
MBVIA       .FR.                      00 000 00 00                : CURVE # 7
CILD        .                         00 000 00 00                : CURVE # 10
HDRS        .OHM.M                    00 000 00 00                : CURVE # 11
MPHIA       .FR.                      00 000 00 00                : CURVE # 12
SPED        .MV                       00 000 00 00                : CURVE # 13
CALA        .                         00 000 00 00                : CURVE # 20
DPHI        .FR.                      00 000 00 00                : CURVE # 21
HDCN        .                         00 000 00 00                : CURVE # 22
LITHO_VHIII .                         00 000 00 00                : CURVE # 23
MFFIA       .FR.                      00 000 00 00                : CURVE # 24
PE          .                         00 000 00 00                : CURVE # 25
SPB         .MV                       00 000 00 00                : CURVE # 26
SPHI        .FR.                      00 000 00 00                : CURVE # 27
~A        DEPTH             DT           RHOB             BS          MBVIA           CILD           HDRS          MPHIA           SPED           CALA           DPHI           HDCN    LITHO_VHIII          MFFIA             PE            SPB           SPHI
# ...
       356.0000       115.5910      -999.2500         8.5000      -999.2500       654.2362         1.5285      -999.2500        -2.5571         9.6905      -999.2500       654.2423      -999.2500      -999.2500      -999.2500        78.3994      -999.2500
       356.1250       116.8734      -999.2500         8.5000      -999.2500       637.0249         1.5719      -999.2500        -3.2446         9.3330      -999.2500       637.0273      -999.2500      -999.2500      -999.2500        77.7477      -999.2500
       356.2500       118.1560      -999.2500         8.5000      -999.2500       558.3641         1.7998      -999.2500        -3.9721         9.0125      -999.2500       558.3582      -999.2500      -999.2500      -999.2500        77.0559      -999.2500
       356.3750       119.4386      -999.2500         8.5000      -999.2500       464.6702         2.1613      -999.2500        -4.6397         8.9314      -999.2500       464.6752      -999.2500      -999.2500      -999.2500        76.4241      -999.2500
       356.5000       120.7210      -999.2500         8.5000      -999.2500       400.5448         2.4966      -999.2500        -4.6441         9.0638      -999.2500       400.5373      -999.2500      -999.2500      -999.2500        76.4556      -999.2500
       356.6250       122.0034      -999.2500         8.5000      -999.2500       395.5294         2.5295      -999.2500        -4.1281         9.3344      -999.2500       395.5241      -999.2500      -999.2500      -999.2500        77.0073      -999.2500
       356.7500       123.2860      -999.2500         8.5000      -999.2500       429.8143         2.3310      -999.2500        -3.5609         9.7305      -999.2500       429.8123      -999.2500      -999.2500      -999.2500        77.6105      -999.2500
       356.8750       124.5686      -999.2500         8.5000      -999.2500       476.7493         2.1001      -999.2500        -3.0707        10.1605      -999.2500       476.7403      -999.2500      -999.2500      -999.2500        78.1364      -999.2500
       357.0000       125.2510      -999.2500         8.5000      -999.2500       512.4789         1.9513      -999.2500        -2.6834        10.4938      -999.2500       512.4899      -999.2500      -999.2500      -999.2500        78.5594      -999.2500
       357.1250       123.5763      -999.2500         8.5000      -999.2500       525.1982         1.9041      -999.2500        -2.3562        10.7559      -999.2500       525.1898      -999.2500      -999.2500      -999.2500        78.9225      -999.2500
       357.2500       122.6020      -999.2500         8.5000      -999.2500       526.5931         1.8990      -999.2500        -2.1633        10.9325      -999.2500       526.5882      -999.2500      -999.2500      -999.2500        79.1512      -999.2500
       357.3750       121.6419      -999.2500         8.5000      -999.2500       526.8499         1.8981      -999.2500        -1.9618        10.9681      -999.2500       526.8456      -999.2500      -999.2500      -999.2500        79.3884      -999.2500
       357.5000       120.6920      -999.2500         8.5000      -999.2500       530.8701         1.8837      -999.2500        -2.1577        10.9724      -999.2500       530.8574      -999.2500      -999.2500      -999.2500        79.2283      -999.2500
       357.6250       119.7920      -999.2500         8.5000      -999.2500       535.6334         1.8670      -999.2500        -2.3007        10.8356      -999.2500       535.6368      -999.2500      -999.2500      -999.2500        79.1211      -999.2500
       357.7500       119.4920      -999.2500         8.5000      -999.2500       533.5474         1.8743      -999.2500        -2.4095        10.6191      -999.2500       533.5543      -999.2500      -999.2500      -999.2500        79.0311      -999.2500
       357.8750       118.8927      -999.2500         8.5000      -999.2500       520.9796         1.9197      -999.2500        -2.2957        10.3385      -999.2500       520.9759      -999.2500      -999.2500      -999.2500        79.1383      -999.2500
       358.0000       118.7930      -999.2500         8.5000      -999.2500       499.5005         2.0020      -999.2500        -2.1646        10.0266      -999.2500       499.5036      -999.2500      -999.2500      -999.2500        79.2626      -999.2500
       358.1250       118.8780      -999.2500         8.5000      -999.2500       471.9507         2.1200      -999.2500        -2.2536         9.7474      -999.2500       471.9449      -999.2500      -999.2500      -999.2500        79.1669      -999.2500
       358.2500       119.0030      -999.2500         8.5000      -999.2500       440.7498         2.2708      -999.2500        -2.4855         9.4939      -999.2500       440.7482      -999.2500      -999.2500      -999.2500        78.9282      -999.2500
       358.3750       119.0635      -999.2500         8.5000      -999.2500       410.1274         2.4397      -999.2500        -2.9534         9.3729      -999.2500       410.1312      -999.2500      -999.2500      -999.2500        78.4536      -999.2500
       358.5000       119.0800      -999.2500         8.5000      -999.2500       387.0269         2.5838      -999.2500        -3.2296         9.2632      -999.2500       387.0311      -999.2500      -999.2500      -999.2500        78.1707      -999.2500
       358.6250       119.0708      -999.2500         8.5000      -999.2500       379.7964         2.6330      -999.2500        -3.3544         9.2162      -999.2500       379.8003      -999.2500      -999.2500      -999.2500        78.0392      -999.2500
       358.7500       118.9540      -999.2500         8.5000      -999.2500       384.8832         2.5984      -999.2500        -3.5906         9.2319      -999.2500       384.8777      -999.2500      -999.2500      -999.2500        77.7962      -999.2500
       358.8750       118.8372      -999.2500         8.5000      -999.2500       395.2595         2.5302      -999.2500        -3.9213         9.2775      -999.2500       395.2571      -999.2500      -999.2500      -999.2500        77.4589      -999.2500
       359.0000       118.6280      -999.2500         8.5000      -999.2500       404.7436         2.4707      -999.2500        -4.3062         9.3088      -999.2500       404.7434      -999.2500      -999.2500      -999.2500        77.0673      -999.2500
       359.1250       118.3945      -999.2500         8.5000      -999.2500       414.7620         2.4114      -999.2500        -4.2866         9.3871      -999.2500       414.7601      -999.2500      -999.2500      -999.2500        77.0802      -999.2500
       359.2500       118.1680      -999.2500         8.5000      -999.2500       432.2701         2.3144      -999.2500        -4.0956         9.5794      -999.2500       432.2625      -999.2500      -999.2500      -999.2500        77.2646      -999.2500
       359.3750       117.9512      -999.2500         8.5000      -999.2500       457.8449         2.1851      -999.2500        -3.7973         9.7204      -999.2500       457.8440      -999.2500      -999.2500      -999.2500        77.5561      -999.2500
       359.5000       117.7350      -999.2500         8.5000      -999.2500       480.4921         2.0812      -999.2500        -3.6390         9.8101      -999.2500       480.4924      -999.2500      -999.2500      -999.2500        77.7076      -999.2500
       359.6250       117.3753      -999.2500         8.5000      -999.2500       481.3525         2.0777      -999.2500        -3.2950        10.0110      -999.2500       481.3428      -999.2500      -999.2500      -999.2500        78.0449      -999.2500
       359.7500       117.3360      -999.2500         8.5000      -999.2500       461.3433         2.1688      -999.2500        -3.1482        10.1691      -999.2500       461.3426      -999.2500      -999.2500      -999.2500        78.1850      -999.2500
       359.8750       117.6658      -999.2500         8.5000      -999.2500       435.0970         2.2993      -999.2500        -2.9972        10.5622      -999.2500       435.0943      -999.2500      -999.2500      -999.2500        78.3294      -999.2500
