#----------------------------------------------------------------------------------
#
# APPLICATION : SAHARA 3.2.110
# DATE        : 04/07/2024 19:46:19
# PROJECT     : VH-III
#
#----------------------------------------------------------------------------------
~Version Information
VERS. 2.0 : CWLS LOG ASCII STANDARD - VERSION 2.0
WRAP.  NO : One line per depth step
~Well Information
#MNEMONIC   .UNIT                                           VALUE : DESCRIPTION
#----------------------------------------------------------------------------------
STRT        .M                                           283.2000 : START DEPTH
STOP        .M                                          1987.2000 : STOP DEPTH
STEP        .M                                           125.0000 : STEP
NULL        .                                           -999.2500 : NULL VALUE
COMP        .                                                     : COMPANY
WELL        .                                             PVH-937 : WELL NAME
FLD         .                                                     : FIELD
LOC         .                                                     : LOCATION
PROV        .                                                     : PROVINCE
SRVC        .                                                     : SERVICE COMPANY
DATE        .                                                     : DATE
UWI         .                                          5420001652 : UNIQUE WELL ID
XCOORD      .                                        2539513.9200 : SURFACE X
YCOORD      .                                        4929943.0400 : SURFACE Y
ELEV        .M                                           388.2200 : SURFACE ELEV
~Curve Information
#MNEMONIC   .UNIT                       API CODES           CURVE : DESCRIPTION
#----------------------------------------------------------------------------------
DEPTH       .M                        00 000 00 00                : CURVE # 18
HDRS        .OHM.M                    00 000 00 00                : CURVE # 2
SPED        .MV                       00 000 00 00                : CURVE # 4
LITHO_VHIII .                         00 000 00 00                : CURVE # 5
CALA        .                         00 000 00 00                : CURVE # 10
HT24        .OHM.M                    00 000 00 00                : CURVE # 11
MPHIA       .FR.                      00 000 00 00                : CURVE # 12
HDCN        .                         00 000 00 00                : CURVE # 19
HMRS        .OHM.M                    00 000 00 00                : CURVE # 20
HT90        .OHM.M                    00 000 00 00                : CURVE # 21
MBVIA       .FR.                      00 000 00 00                : CURVE # 22
SPB         .MV                       00 000 00 00                : CURVE # 23
~A        DEPTH           HDRS           SPED    LITHO_VHIII           CALA           HT24          MPHIA           HDCN           HMRS           HT90          MBVIA            SPB
# ...
       963.8250         1.8588        -1.7068         1.0000         9.0757         1.7998         0.0124       537.9730         1.8255         1.8589         0.0123        79.7365
       963.9500         1.8490        -1.6314         1.0000         9.0705         1.7987         0.0118       540.8561         1.8207         1.8490         0.0118        79.8120
       964.0750         1.8136        -1.5169         1.0000         9.1094         1.7727         0.0100       551.4302         1.7906         1.8136         0.0100        79.9264
       964.2000         1.7704        -1.4326         1.0000         9.2373         1.7355         0.0076       564.8492         1.7509         1.7704         0.0074        80.0107
       964.3250         1.7302        -1.2737         1.0000         9.3320         1.6978         0.0045       577.9848         1.7121         1.7302         0.0041        80.1695
       964.4500         1.6890        -1.2379         1.0000         9.4494         1.6708         0.0023       592.1450         1.6788         1.6890         0.0015        80.2054
       964.5750         1.6475        -1.1918         1.0000         9.6171         1.6617         0.0014       607.0099         1.6553         1.6475         0.0004        80.2514
       964.7000         1.6154        -1.1991         1.0000         9.6942         1.6754         0.0016       619.0395         1.6482         1.6154         0.0003        80.2442
       964.8250         1.6079        -1.2037         1.0000         9.7229         1.7083         0.0023       621.9255         1.6622         1.6079         0.0005        80.2396
       964.9500         1.6205        -1.2903         1.0000         9.7681         1.7357         0.0034       617.1187         1.6825         1.6205         0.0008        80.1530
       965.0750         1.6387        -1.4445         1.0000         9.9254         1.7309         0.0047       610.2386         1.6887         1.6388         0.0012        79.9988
       965.2000         1.6436        -1.5126         1.0000        10.2874         1.6842         0.0060       608.4308         1.6659         1.6436         0.0017        79.9307
       965.3250         1.6320        -1.6183         1.0000        10.6038         1.6182         0.0071       612.7452         1.6243         1.6320         0.0021        79.8250
       965.4500         1.6247        -1.6571         1.0000        10.7143         1.5825         0.0078       615.4797         1.6010         1.6248         0.0025        79.7863
       965.5750         1.6369        -1.6014         1.0000        10.2882         1.5972         0.0080       610.9040         1.6146         1.6369         0.0027        79.8419
       965.7000         1.6625        -1.5554         1.0000         9.6207         1.6477         0.0079       601.5197         1.6542         1.6625         0.0028        79.8879
       965.8250         1.6644        -1.4273         1.0000         9.0971         1.6859         0.0079       600.8240         1.6762         1.6644         0.0029        80.0161
       965.9500         1.6288        -1.2732         1.0000         9.0272         1.6755         0.0081       614.0523         1.6544         1.6288         0.0031        80.1701
       966.0750         1.5771        -1.1499         1.0000         9.0959         1.6287         0.0081       634.1503         1.6054         1.5771         0.0031        80.2934
       966.2000         1.5423        -1.0922         1.0000         9.1907         1.5873         0.0073       648.3967         1.5670         1.5423         0.0028        80.3511
       966.3250         1.5521        -1.1316         1.0000         9.1354         1.5879         0.0059       644.3189         1.5718         1.5521         0.0021        80.3117
       966.4500         1.5918        -1.2051         1.0000         9.0735         1.6212         0.0044       628.3063         1.6080         1.5919         0.0015        80.2381
       966.5750         1.6344        -1.3587         1.0000         9.0264         1.6622         0.0033       611.9020         1.6497         1.6344         0.0011        80.0845
       966.7000         1.6595        -1.5615         1.0000         9.0945         1.6856         0.0024       602.5839         1.6739         1.6595         0.0008        79.8818
       966.8250         1.6666        -1.7349         1.0000         9.1796         1.6883         0.0020       600.0034         1.6786         1.6667         0.0005        79.7084
       966.9500         1.6768        -1.9097         1.0000         9.2192         1.6912         0.0020       596.3853         1.6847         1.6768         0.0004        79.5336
       967.0750         1.6997        -1.9901         1.0000         9.2825         1.7085         0.0021       588.3536         1.7046         1.6997         0.0003        79.4532
       967.2000         1.7338        -2.0911         1.0000         9.3959         1.7409         0.0021       576.7776         1.7377         1.7338         0.0002        79.3522
       967.3250         1.7695        -2.0675         1.0000         9.4694         1.7746         0.0019       565.1340         1.7723         1.7695         0.0002        79.3757
       967.4500         1.7898        -2.0072         1.0000         9.4264         1.7994         0.0017       558.7145         1.7951         1.7899         0.0002        79.4362
       967.5750         1.7890        -1.9036         1.0000         9.3573         1.8139         0.0016       558.9730         1.8028         1.7890         0.0002        79.5397
       967.7000         1.7837        -1.8767         1.0000         9.3004         1.8233         0.0016       560.6243         1.8055         1.7837         0.0002        79.5666
       967.8250         1.8070        -1.8581         1.0000         9.3008         1.8476         0.0017       553.4475         1.8293         1.8070         0.0003        79.5852
       967.9500         1.8682        -1.8571         1.0000         9.2508         1.8937         0.0018       535.4107         1.8822         1.8683         0.0003        79.5862
       968.0750         1.9462        -1.8664         1.0000         9.2152         1.9464         0.0019       513.9122         1.9463         1.9462         0.0003        79.5769
       968.2000         1.9969        -1.8101         1.0000         9.1783         1.9774         0.0020       500.7784         1.9860         1.9969         0.0004        79.6332
       968.3250         1.9837        -1.7969         1.0000         9.1723         1.9654         0.0020       504.1415         1.9735         1.9837         0.0005        79.6464
       968.4500         1.9386        -1.6988         1.0000         9.1704         1.9327         0.0020       515.8845         1.9354         1.9386         0.0006        79.7445
       968.5750         1.8980        -1.5844         1.0000         9.1686         1.9055         0.0023       526.8824         1.9022         1.8980         0.0008        79.8589
       968.7000         1.8809        -1.4973         1.0000         9.1367         1.8970         0.0030       531.6669         1.8898         1.8809         0.0012        79.9460
       968.8250         1.8743        -1.4512         1.0000         9.1633         1.9011         0.0038       533.5315         1.8891         1.8743         0.0015        79.9921
       968.9500         1.8418        -1.4353         1.0000         9.2304         1.8807         0.0046       543.0356         1.8632         1.8417         0.0020        80.0080
       969.0750         1.7625        -1.4890         1.0000         9.3345         1.8095         0.0073       567.5485         1.7884         1.7625         0.0051        79.9543
       969.2000         1.6513        -1.5401         1.0000         9.3692         1.6984         0.0144       605.5768         1.6772         1.6513         0.0128        79.9032
       969.3250         1.5589        -1.6096         1.0000         9.3573         1.5976         0.0257       641.5989         1.5802         1.5589         0.0249        79.8337
