#----------------------------------------------------------------------------------
#
# APPLICATION : SAHARA 3.2.110
# DATE        : 04/07/2024 19:46:17
# PROJECT     : VH-III
#
#----------------------------------------------------------------------------------
~Version Information
VERS. 2.0 : CWLS LOG ASCII STANDARD - VERSION 2.0
WRAP.  NO : One line per depth step
~Well Information
#MNEMONIC   .UNIT                                           VALUE : DESCRIPTION
#----------------------------------------------------------------------------------
STRT        .M                                           313.4750 : START DEPTH
STOP        .M                                          1692.9750 : STOP DEPTH
STEP        .M                                           125.0000 : STEP
NULL        .                                           -999.2500 : NULL VALUE
COMP        .                                                     : COMPANY
WELL        .                                            PVH-1007 : WELL NAME
FLD         .                                                     : FIELD
LOC         .                                                     : LOCATION
PROV        .                                                     : PROVINCE
SRVC        .                                                     : SERVICE COMPANY
DATE        .                                                     : DATE
UWI         .                                          5420000089 : UNIQUE WELL ID
XCOORD      .                                        2539987.0400 : SURFACE X
YCOORD      .                                        4929711.0400 : SURFACE Y
ELEV        .M                                           417.7500 : SURFACE ELEV
~Curve Information
#MNEMONIC   .UNIT                       API CODES           CURVE : DESCRIPTION
#----------------------------------------------------------------------------------
DEPTH       .M                        00 000 00 00                : CURVE # 19
HMRS        .OHM.M                    00 000 00 00                : CURVE # 2
SPED        .MV                       00 000 00 00                : CURVE # 4
CALA        .                         00 000 00 00                : CURVE # 5
MBVIA       .FR.                      00 000 00 00                : CURVE # 6
HDCN        .                         00 000 00 00                : CURVE # 11
HT90        .OHM.M                    00 000 00 00                : CURVE # 12
MPHIA       .FR.                      00 000 00 00                : CURVE # 13
CILD        .                         00 000 00 00                : CURVE # 20
HDRS        .OHM.M                    00 000 00 00                : CURVE # 21
HT24        .OHM.M                    00 000 00 00                : CURVE # 22
LITHO_VHIII .                         00 000 00 00                : CURVE # 23
MFFIA       .FR.                      00 000 00 00                : CURVE # 24
SPB         .MV                       00 000 00 00                : CURVE # 25
~A        DEPTH           HMRS           SPED           CALA          MBVIA           HDCN           HT90          MPHIA           CILD           HDRS           HT24    LITHO_VHIII          MFFIA            SPB
# ...
      1686.2250         2.7463        -0.3138         8.4908         0.0072       371.8775         2.6936         0.0072       371.8785         2.6934         2.7902         1.0000         0.0000        78.7610
      1686.3500         3.1026        -0.3266         8.4908         0.0072       328.1451         3.0571         0.0072       328.1460         3.0571         3.1400         1.0000         0.0000        78.7610
      1686.4750         3.5500        -0.3395         8.4908         0.0072       284.6816         3.5217         0.0072       284.6786         3.5213         3.5736         1.0000         0.0000        78.7610
      1686.6000         3.9494        -0.3524         8.4908         0.0072       252.7414         3.9566         0.0072       252.7423         3.9566         3.9436         1.0000         0.0000        78.7610
      1686.7250         4.0234        -0.3653         8.4908         0.0072       245.1482         4.0797         0.0072       245.1472         4.0798         3.9793         1.0000         0.0000        78.7610
      1686.8500         3.7587        -0.3781         8.4908         0.0072       260.3525         3.8467         0.0072       260.3545         3.8467         3.6910         1.0000         0.0000        78.7610
      1686.9750         3.3595        -0.3910         8.4908         0.0072       289.9715         3.4537         0.0072       289.9752         3.4540         3.2872         1.0000         0.0000        78.7610
      1687.1000         3.0612        -0.4040         8.4908         0.0072       317.1708         3.1529         0.0072       317.1683         3.1529         2.9917         1.0000         0.0000        78.7610
      1687.2250         3.0398        -0.4169         8.4908         0.0072       318.6296         3.1398         0.0072       318.6302         3.1396         2.9645         1.0000         0.0000        78.7610
      1687.3500         3.2703        -0.4297         8.4908         0.0072       295.3292         3.3923         0.0072       295.3272         3.3923         3.1790         1.0000         0.0000        78.7610
      1687.4750         3.6216        -0.4426         8.4908         0.0072       266.9877         3.7499         0.0072       266.9864         3.7497         3.5256         1.0000         0.0000        78.7610
      1687.6000         3.8003        -0.4555         8.4908         0.0072       257.6049         3.8819         0.0072       257.6058         3.8819         3.7374         1.0000         0.0000        78.7610
      1687.7250         3.5938        -0.4684         8.4908         0.0072       278.5798         3.5943         0.0072       278.5815         3.5946         3.5931         1.0000         0.0000        78.7610
      1687.8500         3.3148        -0.4812         8.4908         0.0072       306.3853         3.2670         0.0072       306.3876         3.2670         3.3542         1.0000         0.0000        78.7610
      1687.9750         3.1981        -0.4941         8.4908         0.0072       318.7053         3.1378         0.0072       318.7018         3.1378         3.2481         1.0000         0.0000        78.7610
      1688.1000         3.2679        -0.5070         8.4908         0.0072       310.8133         3.2174         0.0072       310.8100         3.2174         3.3095         1.0000         0.0000        78.7610
      1688.2250         3.4079        -0.5200         8.4908         0.0072       296.9246         3.3684         0.0072       296.9214         3.3684         3.4403         1.0000         0.0000        78.7610
      1688.3500         3.4921        -0.5328         8.4908         0.0072       289.5807         3.4534         0.0072       289.5779         3.4534         3.5238         1.0000         0.0000        78.7610
      1688.4750         3.5216        -0.5457         8.4908         0.0072       288.6259         3.4647         0.0072       288.6277         3.4647         3.5684         1.0000         0.0000        78.7610
      1688.6000         3.5306        -0.5586         8.4908         0.0072       290.2213         3.4456         0.0072       290.2252         3.4456         3.6017         1.0000         0.0000        78.7610
      1688.7250         3.5283        -0.5715         8.4908         0.0072       291.7621         3.4275         0.0072       291.7612         3.4275         3.6133         1.0000         0.0000        78.7610
      1688.8500         3.5138        -0.5843         8.4908         0.0072       292.9582         3.4134         0.0072       292.9603         3.4134         3.5983         1.0000         0.0000        78.7610
      1688.9750         3.4924        -0.5972         8.4908         0.0072       294.0708         3.4005         0.0072       294.0709         3.4005         3.5695         1.0000         0.0000        78.7610
      1689.1000         3.4727        -0.6101         8.4908         0.0072       295.2722         3.3867         0.0072       295.2727         3.3867         3.5446         1.0000         0.0000        78.7610
      1689.2250         3.4612        -0.6204         8.4908         0.0072       296.4620         3.3731         0.0072       296.4641         3.3731         3.5351         1.0000         0.0000        78.7610
      1689.3500         3.4548        -0.6204         8.4908         0.0072       297.2750         3.3639         0.0072       297.2746         3.3639         3.5312         1.0000         0.0000        78.7610
      1689.4750         3.4512        -0.6204         8.4908         0.0072       297.6868         3.3593         0.0072       297.6834         3.3593         3.5285         1.0000         0.0000        78.7610
      1689.6000         3.4505        -0.6204         8.4908         0.0072       297.8918         3.3569         0.0072       297.8939         3.3569         3.5291         1.0000         0.0000        78.7610
      1689.7250         3.4528        -0.6204         8.4908         0.0072       298.1023         3.3545         0.0072       298.1027         3.3545         3.5356         1.0000         0.0000        78.7610
      1689.8500         3.4561        -0.6204         8.4908         0.0072       298.3303         3.3520         0.0072       298.3295         3.3520         3.5441         1.0000         0.0000        78.7610
      1689.9750         3.4586        -0.6204         8.4908         0.0072       298.5220         3.3498         0.0072       298.5231         3.3498         3.5508         1.0000         0.0000        78.7610
      1690.1000         3.4593        -0.6204         8.4908         0.0072       298.7392         3.3474         0.0072       298.7393         3.3474         3.5544         1.0000         0.0000        78.7610
      1690.2250      -999.2500        -0.6204         8.4908         0.0072      -999.2500         3.3858         0.0072      -999.2500      -999.2500         3.5815         1.0000         0.0000        78.7610
      1690.3500      -999.2500        -0.6204         8.4908         0.0072      -999.2500         3.5071         0.0072      -999.2500      -999.2500         3.6626         1.0000         0.0000        78.7610
      1690.4750      -999.2500        -0.6204         8.4908         0.0072      -999.2500         3.5071         0.0072      -999.2500      -999.2500         3.6626         1.0000         0.0000        78.7610
      1690.6000      -999.2500        -0.6204         8.4908         0.0072      -999.2500         3.5071         0.0072      -999.2500      -999.2500         3.6626         1.0000         0.0000        78.7610
      1690.7250      -999.2500        -0.6204         8.4908         0.0072      -999.2500         3.5071         0.0072      -999.2500      -999.2500         3.6626         1.0000         0.0000        78.7610
      1690.8500      -999.2500        -0.6204         8.4908         0.0072      -999.2500         3.5071         0.0072      -999.2500      -999.2500         3.6626         1.0000         0.0000        78.7610
