#----------------------------------------------------------------------------------
#
# APPLICATION : SAHARA 3.2.110
# DATE        : 04/07/2024 19:46:19
# PROJECT     : VH-III
#
#----------------------------------------------------------------------------------
~Version Information
VERS. 2.0 : CWLS LOG ASCII STANDARD - VERSION 2.0
WRAP.  NO : One line per depth step
~Well Information
#MNEMONIC   .UNIT                                           VALUE : DESCRIPTION
#----------------------------------------------------------------------------------
STRT        .M                                           283.2000 : START DEPTH
STOP        .M                                          1987.2000 : STOP DEPTH
STEP        .M                                           125.0000 : STEP
NULL        .                                           -999.2500 : NULL VALUE
COMP        .                                                     : COMPANY
WELL        .                                             PVH-937 : WELL NAME
FLD         .                                                     : FIELD
LOC         .                                                     : LOCATION
PROV        .                                                     : PROVINCE
SRVC        .                                                     : SERVICE COMPANY
DATE        .                                                     : DATE
UWI         .                                          5420001652 : UNIQUE WELL ID
XCOORD      .                                        2539513.9200 : SURFACE X
YCOORD      .                                        4929943.0400 : SURFACE Y
ELEV        .M                                           388.2200 : SURFACE ELEV
~Curve Information
#MNEMONIC   .UNIT                       API CODES           CURVE : DESCRIPTION
#----------------------------------------------------------------------------------
DEPTH       .M                        00 000 00 00                : CURVE # 18
HDRS        .OHM.M                    00 000 00 00                : CURVE # 2
SPED        .MV                       00 000 00 00                : CURVE # 4
LITHO_VHIII .                         00 000 00 00                : CURVE # 5
CALA        .                         00 000 00 00                : CURVE # 10
HT24        .OHM.M                    00 000 00 00                : CURVE # 11
MPHIA       .FR.                      00 000 00 00                : CURVE # 12
HDCN        .                         00 000 00 00                : CURVE # 19
HMRS        .OHM.M                    00 000 00 00                : CURVE # 20
HT90        .OHM.M                    00 000 00 00                : CURVE # 21
MBVIA       .FR.                      00 000 00 00                : CURVE # 22
SPB         .MV                       00 000 00 00                : CURVE # 23
~A        DEPTH           HDRS           SPED    LITHO_VHIII           CALA           HT24          MPHIA           HDCN           HMRS           HT90          MBVIA            SPB
# ...
      1413.8250         2.3385        -1.7312         1.0000         8.9651         2.2700         0.0026       427.6227         2.3000         2.3386         0.0008        79.2084
      1413.9500         2.3369        -1.6803         1.0000         8.9742         2.2712         0.0029       427.9458         2.2999         2.3368         0.0009        79.2540
      1414.0750         2.2530        -1.6930         1.0000         9.0149         2.2136         0.0033       443.9931         2.2310         2.2530         0.0011        79.2359
      1414.2000         2.1006        -1.7992         1.0000         9.1756         2.0919         0.0036       476.0615         2.0957         2.1006         0.0012        79.1262
      1414.3250         1.9489        -1.8711         1.0000         9.2721         1.9590         0.0035       513.3442         1.9545         1.9488         0.0012        79.0514
      1414.4500         1.8561        -1.9757         1.0000         9.4271         1.8831         0.0033       538.8301         1.8710         1.8561         0.0011        78.9438
      1414.5750         1.8285        -2.0865         1.0000         9.3322         1.8558         0.0031       546.8873         1.8436         1.8285         0.0009        78.8300
      1414.7000         1.8249        -2.1685         1.0000         9.2848         1.8452         0.0030       547.9740         1.8361         1.8249         0.0008        78.7450
      1414.8250         1.8190        -2.1486         1.0000         9.3223         1.8356         0.0027       549.7536         1.8282         1.8190         0.0007        78.7619
      1414.9500         1.8519        -2.0770         1.0000         9.4362         1.8644         0.0023       540.1021         1.8588         1.8519         0.0005        78.8306
      1415.0750         1.9876        -1.9642         1.0000         9.3395         1.9837         0.0021       503.6053         1.9854         1.9876         0.0003        78.9404
      1415.2000         2.2661        -1.8377         1.0000         9.0495         2.2304         0.0020       441.2823         2.2461         2.2661         0.0003        79.0639
      1415.3250         2.6702        -1.7474         1.0000         8.7958         2.6202         0.0024       375.5457         2.6419         2.6706         0.0004        79.1512
      1415.4500         3.0331        -1.5507         1.0000         8.7448         2.9900         0.0030       330.1370         3.0089         3.0332         0.0007        79.3451
      1415.5750         3.1346        -1.3558         1.0000         8.7523         3.1303         0.0035       319.0251         3.1322         3.1346         0.0010        79.5368
      1415.7000         2.9134        -1.2909         1.0000         8.7666         2.9457         0.0039       343.2407         2.9313         2.9134         0.0012        79.5988
      1415.8250         2.5565        -1.3860         1.0000         8.7855         2.5808         0.0041       391.9890         2.5701         2.5562         0.0013        79.5007
      1415.9500         2.2512        -1.4769         1.0000         8.8677         2.2621         0.0047       445.1952         2.2574         2.2511         0.0016        79.4068
      1416.0750         2.0219        -1.6006         1.0000         9.1567         2.0364         0.0054       495.1945         2.0299         2.0219         0.0019        79.2801
      1416.2000         1.8557        -1.8461         1.0000         9.4651         1.8817         0.0061       538.8709         1.8701         1.8557         0.0022        79.0316
      1416.3250         1.7412        -2.0868         1.0000         9.7645         1.7732         0.0063       574.4891         1.7589         1.7412         0.0022        78.7878
      1416.4500         1.6645        -2.2988         1.0000         9.9527         1.6940         0.0062       600.8987         1.6808         1.6645         0.0022        78.5729
      1416.5750         1.6247        -2.4000         1.0000        10.0936         1.6469         0.0060       615.5196         1.6370         1.6247         0.0022        78.4688
      1416.7000         1.6178        -2.4069         1.0000        10.1937         1.6311         0.0058       618.1301         1.6252         1.6178         0.0021        78.4589
      1416.8250         1.6364        -2.3733         1.0000         9.9125         1.6459         0.0057       611.1105         1.6417         1.6364         0.0021        78.4895
      1416.9500         1.6685        -2.2770         1.0000         9.5137         1.6770         0.0058       599.3539         1.6732         1.6686         0.0021        78.5829
      1417.0750         1.7074        -2.1047         1.0000         9.1639         1.7277         0.0061       585.7310         1.7187         1.7074         0.0023        78.7521
      1417.2000         1.7627        -1.8874         1.0000         8.9695         1.8040         0.0063       567.3273         1.7854         1.7627         0.0024        78.9665
      1417.3250         1.8660        -1.7063         1.0000         8.8519         1.9131         0.0066       536.2772         1.8918         1.8661         0.0028        79.1447
      1417.4500         2.0271        -1.6318         1.0000         8.7376         2.0660         0.0066       494.0290         2.0485         2.0272         0.0033        79.2162
      1417.5750         2.2503        -1.5715         1.0000         8.7035         2.2859         0.0062       445.0359         2.2699         2.2503         0.0036        79.2733
      1417.7000         2.5466        -1.5019        -1.0000         8.6975         2.5679         0.0055       392.6809         2.5584         2.5466         0.0034        79.3400
      1417.8250         2.8691        -1.4670        -1.0000         8.6899         2.8667         0.0055       348.9194         2.8676         2.8694         0.0036        79.3719
      1417.9500         3.1066        -1.4992        -1.0000         8.6879         3.0746         0.0077       322.0575         3.0887         3.1067         0.0058        79.3367
      1418.0750         3.2004        -1.5027        -1.0000         8.6881         3.1472         0.0124       312.4652         3.1706         3.2004         0.0106        79.3303
      1418.2000         3.1357        -1.3953         1.0000         8.6916         3.0927         0.0184       318.9100         3.1117         3.1357         0.0167        79.4347
      1418.3250         2.9002        -1.3310         1.0000         8.6960         2.8885         0.0219       345.3186         2.8938         2.8999         0.0205        79.4960
      1418.4500         2.5754        -1.2176         1.0000         8.7015         2.5910         0.0228       389.3685         2.5841         2.5753         0.0212        79.6064
      1418.5750         2.2585        -1.1431         1.0000         8.7219         2.2891         0.0214       443.6780         2.2754         2.2585         0.0193        79.6779
      1418.7000         2.0193        -1.0947         1.0000         8.7454         2.0632         0.0191       495.2284         2.0435         2.0193         0.0161        79.7234
      1418.8250         1.9037        -1.0058         1.0000         8.7509         1.9403         0.0185       525.3522         1.9238         1.9036         0.0151        79.8093
      1418.9500         1.8787        -0.9825         1.0000         8.7398         1.9003         0.0229       532.2830         1.8906         1.8788         0.0199        79.8295
      1419.0750         1.9288        -1.0229         1.0000         8.7165         1.9285         0.0313       518.5641         1.9286         1.9288         0.0295        79.7862
      1419.2000         2.0222        -1.0673         1.0000         8.7104         2.0054         0.0385       494.5126         2.0128         2.0222         0.0378        79.7388
      1419.3250         2.0910        -1.0968         1.0000         8.7106         2.0744         0.0409       478.2320         2.0818         2.0911         0.0408        79.7063
