#----------------------------------------------------------------------------------
#
# APPLICATION : SAHARA 3.2.110
# DATE        : 04/07/2024 19:46:17
# PROJECT     : VH-III
#
#----------------------------------------------------------------------------------
~Version Information
VERS. 2.0 : CWLS LOG ASCII STANDARD - VERSION 2.0
WRAP.  NO : One line per depth step
~Well Information
#MNEMONIC   .UNIT                                           VALUE : DESCRIPTION
#----------------------------------------------------------------------------------
STRT        .M                                           313.4750 : START DEPTH
STOP        .M                                          1692.9750 : STOP DEPTH
STEP        .M                                           125.0000 : STEP
NULL        .                                           -999.2500 : NULL VALUE
COMP        .                                                     : COMPANY
WELL        .                                            PVH-1007 : WELL NAME
FLD         .                                                     : FIELD
LOC         .                                                     : LOCATION
PROV        .                                                     : PROVINCE
SRVC        .                                                     : SERVICE COMPANY
DATE        .                                                     : DATE
UWI         .                                          5420000089 : UNIQUE WELL ID
XCOORD      .                                        2539987.0400 : SURFACE X
YCOORD      .                                        4929711.0400 : SURFACE Y
ELEV        .M                                           417.7500 : SURFACE ELEV
~Curve Information
#MNEMONIC   .UNIT                       API CODES           CURVE : DESCRIPTION
#----------------------------------------------------------------------------------
DEPTH       .M                        00 000 00 00                : CURVE # 19
HMRS        .OHM.M                    00 000 00 00                : CURVE # 2
SPED        .MV                       00 000 00 00                : CURVE # 4
CALA        .                         00 000 00 00                : CURVE # 5
MBVIA       .FR.                      00 000 00 00                : CURVE # 6
HDCN        .                         00 000 00 00                : CURVE # 11
HT90        .OHM.M                    00 000 00 00                : CURVE # 12
MPHIA       .FR.                      00 000 00 00                : CURVE # 13
CILD        .                         00 000 00 00                : CURVE # 20
HDRS        .OHM.M                    00 000 00 00                : CURVE # 21
HT24        .OHM.M                    00 000 00 00                : CURVE # 22
LITHO_VHIII .                         00 000 00 00                : CURVE # 23
MFFIA       .FR.                      00 000 00 00                : CURVE # 24
SPB         .MV                       00 000 00 00                : CURVE # 25
~A        DEPTH           HMRS           SPED           CALA          MBVIA           HDCN           HT90          MPHIA           CILD           HDRS           HT24    LITHO_VHIII          MFFIA            SPB
# ...
      1230.2250         1.8632        -2.0786         8.8567         0.0028       552.3282         1.8125         0.0073       552.3278         1.8125         1.9059         1.0000         0.0045        78.7469
      1230.3500         2.0344        -2.3075         8.8351         0.0035       502.3586         1.9936         0.0090       502.3567         1.9935         2.0685         1.0000         0.0055        78.5114
      1230.4750         2.2023        -2.4825         8.8408         0.0042       461.5622         2.1683         0.0108       461.5583         2.1681         2.2307         1.0000         0.0067        78.3297
      1230.6000         2.3223        -2.6789         8.8457         0.0046       437.4900         2.2858         0.0119       437.4836         2.2858         2.3524         1.0000         0.0073        78.1267
      1230.7250         2.3840        -2.8947         8.8570         0.0045       428.6475         2.3330         0.0118       428.6451         2.3330         2.4264         1.0000         0.0073        77.9043
      1230.8500         2.4684        -3.1130         8.8984         0.0042       417.2097         2.3976         0.0112       417.2023         2.3976         2.5284         1.0000         0.0070        77.6793
      1230.9750         2.6359        -3.2833         8.9729         0.0038       392.2942         2.5510         0.0106       392.2974         2.5508         2.7083         1.0000         0.0067        77.5024
      1231.1000         2.8752        -3.3895         8.9920         0.0036       358.8917         2.7864         0.0102       358.8860         2.7864         2.9504         1.0000         0.0065        77.3895
      1231.2250         3.0579        -3.4196         8.9580         0.0034       333.8389         2.9960         0.0097       333.8410         2.9960         3.1094         1.0000         0.0063        77.3528
      1231.3500         3.0692        -3.3709         8.8967         0.0030       328.2024         3.0471         0.0089       328.1979         3.0471         3.0872         1.0000         0.0059        77.3948
      1231.4750         2.9098        -3.1801         8.8888         0.0026       344.1672         2.9070         0.0081       344.1664         2.9072         2.9117         1.0000         0.0055        77.5791
      1231.6000         2.6600        -2.8610         8.9075         0.0024       376.9451         2.6529         0.0077       376.9460         2.6529         2.6656         1.0000         0.0052        77.8915
      1231.7250         2.4089        -2.5037         8.9997         0.0024       419.2749         2.3880         0.0076       419.2706         2.3880         2.4259         1.0000         0.0051        78.2421
      1231.8500         2.2087        -2.1747         9.0780         0.0026       460.2140         2.1752         0.0076       460.2103         2.1753         2.2362         1.0000         0.0051        78.5644
      1231.9750         2.0739        -1.9237         9.2065         0.0027       491.7203         2.0344         0.0077       491.7144         2.0345         2.1064         1.0000         0.0050        78.8089
      1232.1000         1.9989        -1.7609         9.3905         0.0028       510.4485         1.9591         0.0077       510.4385         1.9591         2.0319         1.0000         0.0049        78.9650
      1232.2250         1.9671        -1.6781         9.4620         0.0028       517.4453         1.9326         0.0077       517.4413         1.9326         1.9957         1.0000         0.0050        79.0411
      1232.3500         1.9513        -1.6635         9.3830         0.0027       519.8771         1.9235         0.0077       519.8867         1.9235         1.9740         1.0000         0.0051        79.0491
      1232.4750         1.9405        -1.6809         9.1905         0.0026       521.2584         1.9184         0.0077       521.2545         1.9184         1.9584         1.0000         0.0052        79.0250
      1232.6000         1.9337        -1.6969         9.0749         0.0025       522.4652         1.9140         0.0078       522.4660         1.9140         1.9497         1.0000         0.0053        79.0024
      1232.7250         1.9371        -1.7264         9.2495         0.0027       522.2802         1.9147         0.0083       522.2817         1.9147         1.9554         1.0000         0.0056        78.9663
      1232.8500         1.9544        -1.7865         9.4145         0.0031       519.5043         1.9250         0.0093       519.4988         1.9250         1.9787         1.0000         0.0062        78.8995
      1232.9750         1.9867        -1.8467         9.5258         0.0036       513.6974         1.9467         0.0103       513.7005         1.9467         2.0199         1.0000         0.0067        78.8327
      1233.1000         2.0298        -1.9136         9.3719         0.0038       505.5518         1.9780         0.0110       505.5612         1.9780         2.0732         1.0000         0.0071        78.7592
      1233.2250         2.0776        -2.0097         9.1702         0.0040       495.9890         2.0163         0.0114       495.9874         2.0163         2.1294         1.0000         0.0074        78.6564
      1233.3500         2.1351        -2.1192         9.1090         0.0042       483.3785         2.0691         0.0119       483.3757         2.0691         2.1909         1.0000         0.0078        78.5402
      1233.4750         2.2174        -2.2469         9.2983         0.0044       464.4298         2.1538         0.0125       464.4279         2.1537         2.2712         1.0000         0.0082        78.4060
      1233.6000         2.3351        -2.3704         9.6250         0.0045       439.3317         2.2762         0.0129       439.3287         2.2762         2.3844         1.0000         0.0084        78.2758
      1233.7250         2.4771        -2.4887         9.8190         0.0044       411.9867         2.4284         0.0128       411.9823         2.4284         2.5175         1.0000         0.0084        78.1509
      1233.8500         2.6069        -2.6015         9.7029         0.0041       389.6099         2.5676         0.0125       389.6095         2.5676         2.6392         1.0000         0.0084        78.0314
      1233.9750         2.6845        -2.6903         9.4974         0.0038       377.4591         2.6495         0.0121       377.4538         2.6495         2.7133         1.0000         0.0083        77.9359
      1234.1000         2.6775        -2.7338         9.3850         0.0036       379.5504         2.6347         0.0118       379.5498         2.6347         2.7127         1.0000         0.0082        77.8858
      1234.2250         2.5862        -2.7505         9.4425         0.0034       396.3514         2.5238         0.0113       396.3506         2.5238         2.6385         1.0000         0.0079        77.8624
      1234.3500         2.4910        -2.7580         9.4694         0.0031       413.9233         2.4163         0.0104       413.9199         2.4164         2.5540         1.0000         0.0072        77.8484
      1234.4750         2.4462        -2.7714         9.3799         0.0028       421.8754         2.3704         0.0093       421.8738         2.3704         2.5105         1.0000         0.0064        77.8283
      1234.6000         2.4686        -2.8035         9.1803         0.0025       416.8002         2.3992         0.0081       416.8056         2.3992         2.5271         1.0000         0.0056        77.7896
      1234.7250         2.5467        -2.8529         9.0406         0.0020       401.1979         2.4931         0.0067       401.1999         2.4931         2.5912         1.0000         0.0047        77.7335
      1234.8500         2.6351        -2.9157         8.9583         0.0016       384.5996         2.6008         0.0052       384.5975         2.6008         2.6632         1.0000         0.0037        77.6640
