#----------------------------------------------------------------------------------
#
# APPLICATION : SAHARA 3.2.110
# DATE        : 04/07/2024 19:46:15
# PROJECT     : VH-III
#
#----------------------------------------------------------------------------------
~Version Information
VERS. 2.0 : CWLS LOG ASCII STANDARD - VERSION 2.0
WRAP.  NO : One line per depth step
~Well Information
#MNEMONIC   .UNIT                                           VALUE : DESCRIPTION
#----------------------------------------------------------------------------------
STRT        .M                                           200.0000 : START DEPTH
STOP        .M                                          1624.7500 : STOP DEPTH
STEP        .M                                           125.0000 : STEP
NULL        .                                           -999.2500 : NULL VALUE
COMP        .                                                     : COMPANY
WELL        .                                             PVH-941 : WELL NAME
FLD         .                                                     : FIELD
LOC         .                                                     : LOCATION
PROV        .                                                     : PROVINCE
SRVC        .                                                     : SERVICE COMPANY
DATE        .                                                     : DATE
UWI         .                                          5420002501 : UNIQUE WELL ID
XCOORD      .                                        2539607.2000 : SURFACE X
YCOORD      .                                        4929727.3600 : SURFACE Y
ELEV        .M                                           399.3400 : SURFACE ELEV
~Curve Information
#MNEMONIC   .UNIT                       API CODES           CURVE : DESCRIPTION
#----------------------------------------------------------------------------------
DEPTH       .M                        00 000 00 00                : CURVE # 19
DT          .US/FT                    00 000 00 00                : CURVE # 2
RHOB        .                         00 000 00 00                : CURVE # 3
BS          .                         00 000 00 00                : CURVE # 6
MBVIA       .FR.                      00 000 00 00                : CURVE # 7
CILD        .                         00 000 00 00                : CURVE # 10
HDRS        .OHM.M                    00 000 00 00                : CURVE # 11
MPHIA       .FR.                      00 000 00 00                : CURVE # 12
SPED        .MV                       00 000 00 00                : CURVE # 13
CALA        .                         00 000 00 00                : CURVE # 20
DPHI        .FR.                      00 000 00 00                : CURVE # 21
HDCN        .                         00 000 00 00                : CURVE # 22
LITHO_VHIII .                         00 000 00 00                : CURVE # 23
MFFIA       .FR.                      00 000 00 00                : CURVE # 24
PE          .                         00 000 00 00                : CURVE # 25
SPB         .MV                       00 000 00 00                : CURVE # 26
SPHI        .FR.                      00 000 00 00                : CURVE # 27
~A        DEPTH             DT           RHOB             BS          MBVIA           CILD           HDRS          MPHIA           SPED           CALA           DPHI           HDCN    LITHO_VHIII          MFFIA             PE            SPB           SPHI
# ...
       536.0000       119.1830      -999.2500         8.5000      -999.2500       464.3603         2.1535      -999.2500        -1.2720         8.7391      -999.2500       464.3648      -999.2500      -999.2500      -999.2500        78.6782      -999.2500
       536.1250       116.7796      -999.2500         8.5000      -999.2500       444.5874         2.2497      -999.2500        -1.4205         8.7177      -999.2500       444.5889      -999.2500      -999.2500      -999.2500        78.5519      -999.2500
       536.2500       115.3780      -999.2500         8.5000      -999.2500       429.2305         2.3300      -999.2500        -1.4977         8.7078      -999.2500       429.2289      -999.2500      -999.2500      -999.2500        78.4970      -999.2500
       536.3750       113.4058      -999.2500         8.5000      -999.2500       421.6008         2.3720      -999.2500        -1.5748         8.6978      -999.2500       421.5949      -999.2500      -999.2500      -999.2500        78.4421      -999.2500
       536.5000       112.4670      -999.2500         8.5000      -999.2500       417.3623         2.3960      -999.2500        -1.7062         8.7448      -999.2500       417.3666      -999.2500      -999.2500      -999.2500        78.3329      -999.2500
       536.6250       111.8829      -999.2500         8.5000      -999.2500       410.1857         2.4381      -999.2500        -2.1006         8.7591      -999.2500       410.1853      -999.2500      -999.2500      -999.2500        77.9607      -999.2500
       536.7500       110.8115      -999.2500         8.5000      -999.2500       399.0012         2.5066      -999.2500        -2.4464         8.7647      -999.2500       399.0046      -999.2500      -999.2500      -999.2500        77.6371      -999.2500
       536.8750       109.4896      -999.2500         8.5000      -999.2500       386.4739         2.5878      -999.2500        -2.7236         8.7705      -999.2500       386.4730      -999.2500      -999.2500      -999.2500        77.3821      -999.2500
       537.0000       108.9290      -999.2500         8.5000      -999.2500       375.6292         2.6622      -999.2500        -3.1524         8.7619      -999.2500       375.6356      -999.2500      -999.2500      -999.2500        76.9756      -999.2500
       537.1250       108.4377      -999.2500         8.5000      -999.2500       368.9428         2.7105      -999.2500        -3.3581         8.7747      -999.2500       368.9476      -999.2500      -999.2500      -999.2500        76.7921      -999.2500
       537.2500       108.1870      -999.2500         8.5000      -999.2500       363.9721         2.7476      -999.2500        -3.6496         8.7818      -999.2500       363.9760      -999.2500      -999.2500      -999.2500        76.5228      -999.2500
       537.3750       108.6427      -999.2500         8.5000      -999.2500       357.4880         2.7974      -999.2500        -4.2369         8.7676      -999.2500       357.4910      -999.2500      -999.2500      -999.2500        75.9578      -999.2500
       537.5000       109.1680      -999.2500         8.5000      -999.2500       347.9592         2.8739      -999.2500        -5.1930         8.7391      -999.2500       347.9633      -999.2500      -999.2500      -999.2500        75.0238      -999.2500
       537.6250       109.3345      -999.2500         8.5000      -999.2500       335.2206         2.9838      -999.2500        -6.7003         8.7491      -999.2500       335.2184      -999.2500      -999.2500      -999.2500        73.5381      -999.2500
       537.7500       109.4215      -999.2500         8.5000      -999.2500       320.7859         3.1184      -999.2500        -8.3144         8.7448      -999.2500       320.7834      -999.2500      -999.2500      -999.2500        71.9469      -999.2500
       537.8750       109.0923      -999.2500         8.5000      -999.2500       307.2294         3.2556      -999.2500        -9.5247         8.7619      -999.2500       307.2291      -999.2500      -999.2500      -999.2500        70.7588      -999.2500
       538.0000       108.5660      -999.2500         8.5000      -999.2500       298.5609         3.3494      -999.2500       -10.4294         8.7960      -999.2500       298.5590      -999.2500      -999.2500      -999.2500        69.8763      -999.2500
       538.1250       108.3157      -999.2500         8.5000      -999.2500       299.1130         3.3433      -999.2500       -10.9352         8.7875      -999.2500       299.1114      -999.2500      -999.2500      -999.2500        69.3925      -999.2500
       538.2500       108.1450      -999.2500         8.5000      -999.2500       305.4080         3.2747      -999.2500       -11.4440         8.7619      -999.2500       305.4100      -999.2500      -999.2500      -999.2500        68.9061      -999.2500
       538.3750       108.2000      -999.2500         8.5000      -999.2500       312.4867         3.2003      -999.2500       -11.7040         8.7063      -999.2500       312.4839      -999.2500      -999.2500      -999.2500        68.6683      -999.2500
       538.5000       108.3250      -999.2500         8.5000      -999.2500       316.3956         3.1606      -999.2500       -11.7498         8.6650      -999.2500       316.3961      -999.2500      -999.2500      -999.2500        68.6448      -999.2500
       538.6250       108.0620      -999.2500         8.5000      -999.2500       315.8174         3.1664      -999.2500       -11.6083         8.6151      -999.2500       315.8184      -999.2500      -999.2500      -999.2500        68.8086      -999.2500
       538.7500       107.9520      -999.2500         8.5000      -999.2500       313.9681         3.1851      -999.2500       -11.3780         8.6251      -999.2500       313.9700      -999.2500      -999.2500      -999.2500        69.0610      -999.2500
       538.8750       107.8420      -999.2500         8.5000      -999.2500       313.5929         3.1888      -999.2500       -11.0964         8.6479      -999.2500       313.5905      -999.2500      -999.2500      -999.2500        69.3648      -999.2500
       539.0000       107.7310      -999.2500         8.5000      -999.2500       315.2287         3.1723      -999.2500       -10.8977         8.6593      -999.2500       315.2284      -999.2500      -999.2500      -999.2500        69.5858      -999.2500
       539.1250       107.6130      -999.2500         8.5000      -999.2500       315.9019         3.1656      -999.2500       -10.6746         8.7006      -999.2500       315.9050      -999.2500      -999.2500      -999.2500        69.8310      -999.2500
       539.2500       107.5225      -999.2500         8.5000      -999.2500       312.5265         3.1999      -999.2500       -10.7175         8.6906      -999.2500       312.5266      -999.2500      -999.2500      -999.2500        69.8104      -999.2500
       539.3750       107.5820      -999.2500         8.5000      -999.2500       305.6606         3.2718      -999.2500       -10.7046         8.6978      -999.2500       305.6622      -999.2500      -999.2500      -999.2500        69.8456      -999.2500
       539.5000       107.8420      -999.2500         8.5000      -999.2500       300.6072         3.3266      -999.2500       -10.4972         8.7220      -999.2500       300.6076      -999.2500      -999.2500      -999.2500        70.0751      -999.2500
       539.6250       112.2175      -999.2500         8.5000      -999.2500       308.7195         3.2407      -999.2500        -9.8386         8.7534      -999.2500       308.7206      -999.2500      -999.2500      -999.2500        70.7564      -999.2500
       539.7500       116.1920      -999.2500         8.5000      -999.2500       334.7034         2.9931      -999.2500        -8.4362         8.7932      -999.2500       334.7020      -999.2500      -999.2500      -999.2500        72.1806      -999.2500
       539.8750       118.1839      -999.2500         8.5000      -999.2500       378.7469         2.6461      -999.2500        -6.4855         8.8202      -999.2500       378.7503      -999.2500      -999.2500      -999.2500        74.1535      -999.2500
