#----------------------------------------------------------------------------------
#
# APPLICATION : SAHARA 3.2.110
# DATE        : 04/07/2024 19:46:17
# PROJECT     : VH-III
#
#----------------------------------------------------------------------------------
~Version Information
VERS. 2.0 : CWLS LOG ASCII STANDARD - VERSION 2.0
WRAP.  NO : One line per depth step
~Well Information
#MNEMONIC   .UNIT                                           VALUE : DESCRIPTION
#----------------------------------------------------------------------------------
STRT        .M                                           313.4750 : START DEPTH
STOP        .M                                          1692.9750 : STOP DEPTH
STEP        .M                                           125.0000 : STEP
NULL        .                                           -999.2500 : NULL VALUE
COMP        .                                                     : COMPANY
WELL        .                                            PVH-1007 : WELL NAME
FLD         .                                                     : FIELD
LOC         .                                                     : LOCATION
PROV        .                                                     : PROVINCE
SRVC        .                                                     : SERVICE COMPANY
DATE        .                                                     : DATE
UWI         .                                          5420000089 : UNIQUE WELL ID
XCOORD      .                                        2539987.0400 : SURFACE X
YCOORD      .                                        4929711.0400 : SURFACE Y
ELEV        .M                                           417.7500 : SURFACE ELEV
~Curve Information
#MNEMONIC   .UNIT                       API CODES           CURVE : DESCRIPTION
#----------------------------------------------------------------------------------
DEPTH       .M                        00 000 00 00                : CURVE # 19
HMRS        .OHM.M                    00 000 00 00                : CURVE # 2
SPED        .MV                       00 000 00 00                : CURVE # 4
CALA        .                         00 000 00 00                : CURVE # 5
MBVIA       .FR.                      00 000 00 00                : CURVE # 6
HDCN        .                         00 000 00 00                : CURVE # 11
HT90        .OHM.M                    00 000 00 00                : CURVE # 12
MPHIA       .FR.                      00 000 00 00                : CURVE # 13
CILD        .                         00 000 00 00                : CURVE # 20
HDRS        .OHM.M                    00 000 00 00                : CURVE # 21
HT24        .OHM.M                    00 000 00 00                : CURVE # 22
LITHO_VHIII .                         00 000 00 00                : CURVE # 23
MFFIA       .FR.                      00 000 00 00                : CURVE # 24
SPB         .MV                       00 000 00 00                : CURVE # 25
~A        DEPTH           HMRS           SPED           CALA          MBVIA           HDCN           HT90          MPHIA           CILD           HDRS           HT24    LITHO_VHIII          MFFIA            SPB
# ...
       679.2250         1.3877        -0.8933         8.7420      -999.2500       698.8879         1.4309      -999.2500       698.8738         1.4309         1.3549         1.0000      -999.2500        80.0345
       679.3500         1.3855        -0.8860         8.7327      -999.2500       701.0590         1.4264      -999.2500       701.0430         1.4264         1.3545         1.0000      -999.2500        80.0419
       679.4750         1.3836        -0.8947         8.7239      -999.2500       703.5634         1.4213      -999.2500       703.5579         1.4213         1.3548         1.0000      -999.2500        80.0331
       679.6000         1.3842        -0.9128         8.7100      -999.2500       704.8571         1.4187      -999.2500       704.8707         1.4187         1.3577         1.0000      -999.2500        80.0150
       679.7250         1.3971        -0.9209         8.7064      -999.2500       699.2603         1.4301      -999.2500       699.2763         1.4301         1.3716         1.0000      -999.2500        80.0070
       679.8500         1.4289        -0.9556         8.7529      -999.2500       683.9254         1.4624      -999.2500       683.9243         1.4624         1.4032         1.0000      -999.2500        79.9722
       679.9750         1.4784        -0.9864         8.8375      -999.2500       660.3673         1.5146      -999.2500       660.3760         1.5146         1.4506         1.0000      -999.2500        79.9414
       680.1000         1.5293        -0.9984         8.9765      -999.2500       637.0085         1.5698      -999.2500       637.0238         1.5698         1.4984         1.0000      -999.2500        79.9294
       680.2250         1.5418        -1.0005         9.0831      -999.2500       630.7963         1.5854      -999.2500       630.7847         1.5854         1.5087         1.0000      -999.2500        79.9273
       680.3500         1.4983        -0.9919         9.1376      -999.2500       649.7760         1.5396      -999.2500       649.7637         1.5396         1.4667         1.0000      -999.2500        79.9360
       680.4750         1.4137        -0.9812         9.1494      -999.2500       692.2785         1.4454      -999.2500       692.2901         1.4454         1.3893         1.0000      -999.2500        79.9466
       680.6000         1.3209        -0.9479         9.1926      -999.2500       746.1871         1.3401      -999.2500       746.2130         1.3401         1.3059         1.0000      -999.2500        79.9799
       680.7250         1.2481        -0.8558         9.3051      -999.2500       795.1598         1.2580      -999.2500       795.1686         1.2580         1.2403         1.0000      -999.2500        80.0720
       680.8500         1.1993        -0.7570         9.4388      -999.2500       832.1324         1.2019      -999.2500       832.1621         1.2019         1.1973         1.0000      -999.2500        80.1708
       680.9750         1.1740        -0.6743         9.4675      -999.2500       854.3525         1.1705      -999.2500       854.3788         1.1705         1.1768         1.0000      -999.2500        80.2536
       681.1000         1.1695        -0.6169         9.4564      -999.2500       860.7188         1.1618      -999.2500       860.7333         1.1618         1.1757         1.0000      -999.2500        80.3109
       681.2250         1.1823        -0.6102         9.4590      -999.2500       851.9446         1.1739      -999.2500       851.9235         1.1738         1.1892         1.0000      -999.2500        80.3176
       681.3500         1.1992        -0.6530         9.5153      -999.2500       838.6838         1.1924      -999.2500       838.6731         1.1924         1.2047         1.0000      -999.2500        80.2747
       681.4750         1.2091        -0.7580         9.5355      -999.2500       830.0153         1.2048      -999.2500       830.0175         1.2048         1.2126         1.0000      -999.2500        80.1699
       681.6000         1.2056        -0.8948         9.5575      -999.2500       830.9544         1.2034      -999.2500       830.9789         1.2034         1.2073         1.0000      -999.2500        80.0330
       681.7250         1.1899        -1.0050         9.5790      -999.2500       839.6586         1.1910      -999.2500       839.6436         1.1910         1.1890         1.0000      -999.2500        79.9228
       681.8500         1.1741        -1.0766         9.6055      -999.2500       848.0166         1.1792      -999.2500       848.0063         1.1792         1.1700         1.0000      -999.2500        79.8512
       681.9750         1.1659        -1.0960         9.5612      -999.2500       851.3851         1.1745      -999.2500       851.3903         1.1745         1.1590         1.0000      -999.2500        79.8318
       682.1000         1.1675        -1.0873         9.5778      -999.2500       849.3348         1.1774      -999.2500       849.3290         1.1774         1.1597         1.0000      -999.2500        79.8405
       682.2250         1.1779        -1.0093         9.5794      -999.2500       843.6819         1.1853      -999.2500       843.6578         1.1853         1.1721         1.0000      -999.2500        79.9185
       682.3500         1.1955        -0.9339         9.6075      -999.2500       834.5963         1.1983      -999.2500       834.5747         1.1983         1.1933         1.0000      -999.2500        79.9939
       682.4750         1.2276        -0.9526         9.5409      -999.2500       816.7151         1.2245      -999.2500       816.7098         1.2245         1.2301         1.0000      -999.2500        79.9753
       682.6000         1.2888        -1.0501         9.5230      -999.2500       781.6401         1.2794      -999.2500       781.6164         1.2794         1.2965         1.0000      -999.2500        79.8777
       682.7250         1.4004        -1.2391         9.4631      -999.2500       721.0291         1.3887      -999.2500       721.0378         1.3886         1.4100         1.0000      -999.2500        79.6888
       682.8500         1.5487        -1.4788         9.4704      -999.2500       648.2695         1.5457      -999.2500       648.2791         1.5457         1.5511         1.0000      -999.2500        79.4490
       682.9750         1.7046        -1.7506         9.4020      -999.2500       581.7029         1.7213      -999.2500       581.7052         1.7213         1.6916         1.0000      -999.2500        79.1772
       683.1000         1.8354        -2.1399         9.2905      -999.2500       534.9347         1.8694      -999.2500       534.9310         1.8694         1.8091         1.0000      -999.2500        78.7879
       683.2250         1.9113        -2.4564         9.1768      -999.2500       512.9180         1.9497      -999.2500       512.9159         1.9497         1.8817         1.0000      -999.2500        78.4714
       683.3500         1.9179        -2.6581         9.0997      -999.2500       512.5839         1.9510      -999.2500       512.5903         1.9510         1.8921        -1.0000      -999.2500        78.2697
       683.4750         1.8460        -2.7897         9.0645      -999.2500       536.8367         1.8636      -999.2500       536.8434         1.8636         1.8321         1.0000      -999.2500        78.1381
       683.6000         1.7313        -2.8798         9.0427      -999.2500       577.6986         1.7310      -999.2500       577.7007         1.7310         1.7315         1.0000      -999.2500        78.0480
       683.7250         1.6425        -2.9140         9.1718      -999.2500       611.6884         1.6350      -999.2500       611.7050         1.6350         1.6485         1.0000      -999.2500        78.0019
       683.8500         1.6040        -2.9028         9.1887      -999.2500       625.8710         1.5977      -999.2500       625.8856         1.5977         1.6090         1.0000      -999.2500        78.0011
