#----------------------------------------------------------------------------------
#
# APPLICATION : SAHARA 3.2.110
# DATE        : 04/07/2024 19:46:17
# PROJECT     : VH-III
#
#----------------------------------------------------------------------------------
~Version Information
VERS. 2.0 : CWLS LOG ASCII STANDARD - VERSION 2.0
WRAP.  NO : One line per depth step
~Well Information
#MNEMONIC   .UNIT                                           VALUE : DESCRIPTION
#----------------------------------------------------------------------------------
STRT        .M                                           313.4750 : START DEPTH
STOP        .M                                          1692.9750 : STOP DEPTH
STEP        .M                                           125.0000 : STEP
NULL        .                                           -999.2500 : NULL VALUE
COMP        .                                                     : COMPANY
WELL        .                                            PVH-1007 : WELL NAME
FLD         .                                                     : FIELD
LOC         .                                                     : LOCATION
PROV        .                                                     : PROVINCE
SRVC        .                                                     : SERVICE COMPANY
DATE        .                                                     : DATE
UWI         .                                          5420000089 : UNIQUE WELL ID
XCOORD      .                                        2539987.0400 : SURFACE X
YCOORD      .                                        4929711.0400 : SURFACE Y
ELEV        .M                                           417.7500 : SURFACE ELEV
~Curve Information
#MNEMONIC   .UNIT                       API CODES           CURVE : DESCRIPTION
#----------------------------------------------------------------------------------
DEPTH       .M                        00 000 00 00                : CURVE # 19
HMRS        .OHM.M                    00 000 00 00                : CURVE # 2
SPED        .MV                       00 000 00 00                : CURVE # 4
CALA        .                         00 000 00 00                : CURVE # 5
MBVIA       .FR.                      00 000 00 00                : CURVE # 6
HDCN        .                         00 000 00 00                : CURVE # 11
HT90        .OHM.M                    00 000 00 00                : CURVE # 12
MPHIA       .FR.                      00 000 00 00                : CURVE # 13
CILD        .                         00 000 00 00                : CURVE # 20
HDRS        .OHM.M                    00 000 00 00                : CURVE # 21
HT24        .OHM.M                    00 000 00 00                : CURVE # 22
LITHO_VHIII .                         00 000 00 00                : CURVE # 23
MFFIA       .FR.                      00 000 00 00                : CURVE # 24
SPB         .MV                       00 000 00 00                : CURVE # 25
~A        DEPTH           HMRS           SPED           CALA          MBVIA           HDCN           HT90          MPHIA           CILD           HDRS           HT24    LITHO_VHIII          MFFIA            SPB
# ...
      1595.9750         3.1420        -1.7340         8.7225         0.0163       323.2832         3.1130         0.0250       323.2817         3.1135         3.1648         1.0000         0.0087        77.7485
      1596.1000         2.6172        -1.2300         8.7128         0.0152       388.1743         2.5762         0.0238       388.1686         2.5762         2.6510         1.0000         0.0087        78.2625
      1596.2250         2.4317        -0.9087         8.7444         0.0156       418.9533         2.3870         0.0236       418.9505         2.3870         2.4686         1.0000         0.0080        78.5936
      1596.3500         2.4401        -0.8493         8.7757         0.0175       417.2192         2.3973         0.0244       417.2166         2.3973         2.4754         1.0000         0.0069        78.6630
      1596.4750         2.5465        -1.0684         8.7947         0.0197       399.5228         2.5038         0.0254       399.5249         2.5037         2.5818         1.0000         0.0058        78.4538
      1596.6000         2.6756        -1.4970         8.7388         0.0209       379.6987         2.6337         0.0258       379.6940         2.6337         2.7101         1.0000         0.0049        78.0351
      1596.7250         2.8086        -1.9598         8.6957         0.0205       360.6172         2.7742         0.0250       360.6183         2.7741         2.8369         1.0000         0.0045        77.5822
      1596.8500         2.9598        -2.3502         8.6873         0.0188       340.4521         2.9390         0.0234       340.4475         2.9390         2.9767         1.0000         0.0046        77.2017
      1596.9750         3.1354        -2.7508         8.7162         0.0157       320.1413         3.1252         0.0209       320.1382         3.1251         3.1439         1.0000         0.0052        76.8110
      1597.1000         3.3375        -3.1208         8.7601         0.0119       300.6548         3.3261         0.0180       300.6524         3.3261         3.3467         1.0000         0.0061        76.4510
      1597.2250         3.5755        -3.4680         8.7714         0.0096       282.6656         3.5395         0.0163       282.6663         3.5393         3.6051         1.0000         0.0067        76.1137
      1597.3500         3.8340        -3.8617         8.7846         0.0091       265.9975         3.7617         0.0161       265.9946         3.7617         3.8941         1.0000         0.0070        75.7299
      1597.4750         4.1012        -4.3098         8.7835         0.0099       250.1937         3.9989         0.0169       250.1920         3.9988         4.1873         1.0000         0.0070        75.2917
      1597.6000         4.3802        -4.7899         8.7871         0.0109       234.2369         4.2692         0.0179       234.2359         4.2692         4.4733         1.0000         0.0070        74.8215
      1597.7250         4.7128        -5.2981         8.7891         0.0131       216.9015         4.6146         0.0198       216.9019         4.6143         4.7949         1.0000         0.0067        74.3233
      1597.8500         5.1173        -5.7752         8.7860         0.0156       199.1219         5.0282         0.0222       199.1225         5.0282         5.1909         1.0000         0.0065        73.8560
      1597.9750         5.5686        -6.2066         8.7768         0.0170       182.9835         5.4697         0.0236       182.9839         5.4694         5.6508         1.0000         0.0067        73.4345
      1598.1000         6.0189        -6.5659         8.7656         0.0164       169.7710         5.8903         0.0237       169.7706         5.8903         6.1260         1.0000         0.0073        73.0852
      1598.2250         6.4368        -6.7368         8.7609         0.0149       159.5765         6.2692         0.0229       159.5764         6.2689         6.5780         1.0000         0.0080        72.9242
      1598.3500         6.7723        -6.6994         8.7620         0.0141       151.9467         6.5828         0.0226       151.9468         6.5828         6.9319         1.0000         0.0085        72.9715
      1598.4750         6.8761        -6.4397         8.7659         0.0136       149.7673         6.6770         0.0225       149.7674         6.6770         7.0442         1.0000         0.0089        73.2411
      1598.6000         6.5044        -5.8822         8.7640         0.0129       158.5045         6.3090         0.0222       158.5037         6.3090         6.6697         1.0000         0.0093        73.8085
      1598.7250         5.5692        -5.0621         8.7638         0.0121       185.7477         5.4082         0.0218       185.7474         5.4089         5.7035         1.0000         0.0097        74.6386
      1598.8500         4.5680        -4.1452         8.7664         0.0116       226.3822         4.4447         0.0216       226.3820         4.4447         4.6717         1.0000         0.0099        75.5654
      1598.9750         3.8494        -3.2757         8.7776         0.0118       267.8332         3.7436         0.0216       267.8354         3.7440         3.9377         1.0000         0.0098        76.4448
      1599.1000         3.4733        -2.5413         8.7948         0.0125       296.6947         3.3705         0.0218       296.6919         3.3705         3.5602         1.0000         0.0093        77.1891
      1599.2250         3.3703        -2.0264         8.7974         0.0131       305.6603         3.2716         0.0218       305.6631         3.2716         3.4536         1.0000         0.0086        77.7139
      1599.3500         3.3829        -1.7281         8.7660         0.0136       303.8759         3.2909         0.0214       303.8747         3.2909         3.4604         1.0000         0.0078        78.0221
      1599.4750         3.4119        -1.7241         8.7377         0.0140       300.3841         3.3292         0.0209       300.3820         3.3291         3.4812         1.0000         0.0069        78.0360
      1599.6000         3.4086        -1.8950         8.7342         0.0144       299.6869         3.3368         0.0203       299.6883         3.3368         3.4682         1.0000         0.0060        77.8750
      1599.7250         3.4035        -2.1694         8.7708         0.0140       299.3630         3.3405         0.0193       299.3612         3.3405         3.4555         1.0000         0.0053        77.6105
      1599.8500         3.4710        -2.4478         8.8000         0.0132       293.4370         3.4085         0.0180       293.4357         3.4085         3.5227         1.0000         0.0049        77.3421
      1599.9750         3.6444        -2.7282         8.8118         0.0131       279.2818         3.5823         0.0176       279.2820         3.5822         3.6960         1.0000         0.0046        77.0715
      1600.1000         3.9025        -2.9980         8.8151         0.0141       259.8633         3.8482         0.0184       259.8618         3.8482         3.9470         1.0000         0.0043        76.8117
      1600.2250         4.1397        -3.2303         8.8064         0.0153       243.7612         4.1034         0.0196       243.7624         4.1033         4.1694         1.0000         0.0042        76.5892
      1600.3500         4.2388        -3.4119         8.7983         0.0154       237.0677         4.2182         0.0199       237.0680         4.2182         4.2554         1.0000         0.0045        76.4176
      1600.4750         4.1631        -3.4233         8.7956         0.0140       241.8723         4.1350         0.0191       241.8704         4.1351         4.1856         1.0000         0.0051        76.4161
      1600.6000         3.8987        -3.2463         8.7978         0.0120       260.7407         3.8352         0.0176       260.7426         3.8352         3.9510         1.0000         0.0056        76.6030
