#----------------------------------------------------------------------------------
#
# APPLICATION : SAHARA 3.2.110
# DATE        : 04/07/2024 19:46:17
# PROJECT     : VH-III
#
#----------------------------------------------------------------------------------
~Version Information
VERS. 2.0 : CWLS LOG ASCII STANDARD - VERSION 2.0
WRAP.  NO : One line per depth step
~Well Information
#MNEMONIC   .UNIT                                           VALUE : DESCRIPTION
#----------------------------------------------------------------------------------
STRT        .M                                           313.4750 : START DEPTH
STOP        .M                                          1692.9750 : STOP DEPTH
STEP        .M                                           125.0000 : STEP
NULL        .                                           -999.2500 : NULL VALUE
COMP        .                                                     : COMPANY
WELL        .                                            PVH-1007 : WELL NAME
FLD         .                                                     : FIELD
LOC         .                                                     : LOCATION
PROV        .                                                     : PROVINCE
SRVC        .                                                     : SERVICE COMPANY
DATE        .                                                     : DATE
UWI         .                                          5420000089 : UNIQUE WELL ID
XCOORD      .                                        2539987.0400 : SURFACE X
YCOORD      .                                        4929711.0400 : SURFACE Y
ELEV        .M                                           417.7500 : SURFACE ELEV
~Curve Information
#MNEMONIC   .UNIT                       API CODES           CURVE : DESCRIPTION
#----------------------------------------------------------------------------------
DEPTH       .M                        00 000 00 00                : CURVE # 19
HMRS        .OHM.M                    00 000 00 00                : CURVE # 2
SPED        .MV                       00 000 00 00                : CURVE # 4
CALA        .                         00 000 00 00                : CURVE # 5
MBVIA       .FR.                      00 000 00 00                : CURVE # 6
HDCN        .                         00 000 00 00                : CURVE # 11
HT90        .OHM.M                    00 000 00 00                : CURVE # 12
MPHIA       .FR.                      00 000 00 00                : CURVE # 13
CILD        .                         00 000 00 00                : CURVE # 20
HDRS        .OHM.M                    00 000 00 00                : CURVE # 21
HT24        .OHM.M                    00 000 00 00                : CURVE # 22
LITHO_VHIII .                         00 000 00 00                : CURVE # 23
MFFIA       .FR.                      00 000 00 00                : CURVE # 24
SPB         .MV                       00 000 00 00                : CURVE # 25
~A        DEPTH           HMRS           SPED           CALA          MBVIA           HDCN           HT90          MPHIA           CILD           HDRS           HT24    LITHO_VHIII          MFFIA            SPB
# ...
      1410.7250         1.8081        -1.9488         9.1467         0.0017       574.8317         1.7397         0.0060       574.8198         1.7397         1.8668         1.0000         0.0044        79.3685
      1410.8500         1.8157        -1.9041         8.9703         0.0028       573.7247         1.7430         0.0069       573.7230         1.7430         1.8783         1.0000         0.0041        79.4083
      1410.9750         1.8263        -1.8153         8.8401         0.0053       571.6628         1.7493         0.0089       571.6743         1.7493         1.8931         1.0000         0.0037        79.4923
      1411.1000         1.8417        -1.7025         8.8442         0.0084       568.5171         1.7590         0.0113       568.5048         1.7590         1.9137         1.0000         0.0029        79.6002
      1411.2250         1.8538        -1.5582         8.8994         0.0099       566.9680         1.7638         0.0122       566.9662         1.7638         1.9326         1.0000         0.0023        79.7396
      1411.3500         1.8546        -1.4221         8.8725         0.0100       569.1688         1.7569         0.0121       569.1771         1.7569         1.9411         1.0000         0.0022        79.8709
      1411.4750         1.8428        -1.3239         8.8120         0.0108       575.8007         1.7368         0.0127       575.7953         1.7368         1.9375         1.0000         0.0019        79.9642
      1411.6000         1.8178        -1.2565         8.7536         0.0143       586.1839         1.7059         0.0155       586.2009         1.7059         1.9184         1.0000         0.0012        80.0267
      1411.7250         1.7738        -1.2031         8.7535         0.0181       600.7310         1.6648         0.0185       600.7219         1.6648         1.8718         1.0000         0.0005        80.0752
      1411.8500         1.7116        -1.1644         8.7825         0.0211       620.4812         1.6120         0.0213       620.4881         1.6120         1.8006         1.0000         0.0001        80.1090
      1411.9750         1.6244        -1.1177         8.8516         0.0248       650.4496         1.5379         0.0250       650.4458         1.5379         1.7009         1.0000         0.0001        80.1509
      1412.1000         1.5060        -1.0750         8.9192         0.0303       698.0325         1.4326         0.0304       698.0316         1.4326         1.5704         1.0000         0.0001        80.1887
      1412.2250         1.3761        -1.0423         9.0319         0.0342       764.0636         1.3101         0.0345       764.0513         1.3101         1.4339         1.0000         0.0003        80.2166
      1412.3500         1.2650        -1.0015         9.0556         0.0323       832.8239         1.2019         0.0337       832.8228         1.2019         1.3204         1.0000         0.0014        80.2524
      1412.4750         1.1874        -0.9547         9.0778         0.0245       890.6857         1.1232         0.0284       890.6903         1.1232         1.2443         1.0000         0.0038        80.2943
      1412.6000         1.1460        -0.9120         9.0476         0.0157       927.9209         1.0777         0.0224       927.9020         1.0777         1.2072         1.0000         0.0066        80.3321
      1412.7250         1.1477        -0.9480         9.0470         0.0111       931.3740         1.0737         0.0195       931.3889         1.0737         1.2148         1.0000         0.0084        80.2912
      1412.8500         1.1837        -1.0295         9.0465         0.0098       905.9994         1.1040         0.0188       906.0185         1.1040         1.2562         1.0000         0.0089        80.2049
      1412.9750         1.2441        -1.1250         9.1718         0.0095       862.3011         1.1602         0.0185       862.2949         1.1601         1.3205         1.0000         0.0090        80.1045
      1413.1000         1.3151        -1.2298         9.2657         0.0088       813.2615         1.2296         0.0179       813.2726         1.2296         1.3926         1.0000         0.0090        79.9948
      1413.2250         1.3851        -1.3227         9.4509         0.0079       769.1781         1.3005         0.0170       769.1630         1.3005         1.4612         1.0000         0.0091        79.8970
      1413.3500         1.4500        -1.3754         9.5921         0.0070       731.7448         1.3670         0.0160       731.7623         1.3670         1.5240         1.0000         0.0090        79.8395
      1413.4750         1.5107        -1.3901         9.6555         0.0059       700.5154         1.4279         0.0145       700.5146         1.4278         1.5843         1.0000         0.0087        79.8199
      1413.6000         1.5651        -1.3794         9.5946         0.0046       675.9175         1.4795         0.0127       675.9040         1.4795         1.6410         1.0000         0.0081        79.8257
      1413.7250         1.6031        -1.3181         9.4622         0.0039       661.3763         1.5121         0.0118       661.3625         1.5121         1.6843         1.0000         0.0079        79.8822
      1413.8500         1.6229        -1.2487         9.4891         0.0038       655.6469         1.5252         0.0116       655.6512         1.5252         1.7106         1.0000         0.0079        79.9467
      1413.9750         1.6259        -1.1832         9.5533         0.0037       656.6140         1.5230         0.0114       656.6116         1.5230         1.7189         1.0000         0.0077        80.0073
      1414.1000         1.6175        -1.1391         9.4672         0.0035       660.9479         1.5130         0.0107       660.9385         1.5130         1.7120         1.0000         0.0071        80.0465
      1414.2250         1.6053        -1.0938         9.3388         0.0031       664.7427         1.5043         0.0095       664.7511         1.5043         1.6964         1.0000         0.0064        80.0870
      1414.3500         1.6002        -1.0657         9.3037         0.0027       664.5832         1.5047         0.0084       664.5840         1.5047         1.6858         1.0000         0.0057        80.1101
      1414.4750         1.6075        -1.0577         9.3430         0.0024       659.2947         1.5168         0.0076       659.3008         1.5168         1.6882         1.0000         0.0052        80.1133
      1414.6000         1.6293        -1.0536         9.3493         0.0021       648.5989         1.5418         0.0068       648.5925         1.5418         1.7068         1.0000         0.0046        80.1124
      1414.7250         1.6701        -1.0543         9.1889         0.0020       630.7485         1.5857         0.0061       630.7441         1.5857         1.7443         1.0000         0.0041        80.1068
      1414.8500         1.7329        -1.0883         9.0464         0.0021       605.6822         1.6516         0.0059       605.6877         1.6516         1.8039         1.0000         0.0038        80.0679
      1414.9750         1.8196        -1.1525         8.9545         0.0022       574.5112         1.7413         0.0060       574.5209         1.7412         1.8876         1.0000         0.0038        79.9989
      1415.1000         1.9161        -1.2086         8.8778         0.0023       543.2787         1.8407         0.0063       543.2715         1.8407         1.9810         1.0000         0.0039        79.9379
      1415.2250         1.9866        -1.2480         8.7710         0.0024       524.0992         1.9081         0.0065       524.0995         1.9081         2.0541         1.0000         0.0041        79.8936
      1415.3500         2.0108        -1.2847         8.6708         0.0025       518.1804         1.9298         0.0067       518.1885         1.9298         2.0806         1.0000         0.0042        79.8521
