#----------------------------------------------------------------------------------
#
# APPLICATION : SAHARA 3.2.110
# DATE        : 04/07/2024 19:46:19
# PROJECT     : VH-III
#
#----------------------------------------------------------------------------------
~Version Information
VERS. 2.0 : CWLS LOG ASCII STANDARD - VERSION 2.0
WRAP.  NO : One line per depth step
~Well Information
#MNEMONIC   .UNIT                                           VALUE : DESCRIPTION
#----------------------------------------------------------------------------------
STRT        .M                                           283.2000 : START DEPTH
STOP        .M                                          1987.2000 : STOP DEPTH
STEP        .M                                           125.0000 : STEP
NULL        .                                           -999.2500 : NULL VALUE
COMP        .                                                     : COMPANY
WELL        .                                             PVH-937 : WELL NAME
FLD         .                                                     : FIELD
LOC         .                                                     : LOCATION
PROV        .                                                     : PROVINCE
SRVC        .                                                     : SERVICE COMPANY
DATE        .                                                     : DATE
UWI         .                                          5420001652 : UNIQUE WELL ID
XCOORD      .                                        2539513.9200 : SURFACE X
YCOORD      .                                        4929943.0400 : SURFACE Y
ELEV        .M                                           388.2200 : SURFACE ELEV
~Curve Information
#MNEMONIC   .UNIT                       API CODES           CURVE : DESCRIPTION
#----------------------------------------------------------------------------------
DEPTH       .M                        00 000 00 00                : CURVE # 18
HDRS        .OHM.M                    00 000 00 00                : CURVE # 2
SPED        .MV                       00 000 00 00                : CURVE # 4
LITHO_VHIII .                         00 000 00 00                : CURVE # 5
CALA        .                         00 000 00 00                : CURVE # 10
HT24        .OHM.M                    00 000 00 00                : CURVE # 11
MPHIA       .FR.                      00 000 00 00                : CURVE # 12
HDCN        .                         00 000 00 00                : CURVE # 19
HMRS        .OHM.M                    00 000 00 00                : CURVE # 20
HT90        .OHM.M                    00 000 00 00                : CURVE # 21
MBVIA       .FR.                      00 000 00 00                : CURVE # 22
SPB         .MV                       00 000 00 00                : CURVE # 23
~A        DEPTH           HDRS           SPED    LITHO_VHIII           CALA           HT24          MPHIA           HDCN           HMRS           HT90          MBVIA            SPB
# ...
       851.3250         2.6860        -4.5082        -1.0000         9.0805         2.5485      -999.2500       372.3785         2.6078         2.6860      -999.2500        76.2067
       851.4500         2.5340        -4.2464        -1.0000         9.1403         2.3496      -999.2500       395.0716         2.4281         2.5339      -999.2500        76.4574
       851.5750         2.3085        -3.7959         1.0000         9.3417         2.0870      -999.2500       433.6958         2.1799         2.3085      -999.2500        76.8967
       851.7000         2.0969        -3.0909         1.0000         9.8098         1.8751      -999.2500       476.9055         1.9676         2.0969      -999.2500        77.5904
       851.8250         1.9767        -2.2459         1.0000        10.2217         1.7716      -999.2500       505.9553         1.8573         1.9767      -999.2500        78.4241
       851.9500         1.9360        -1.5240         1.0000        10.4040         1.7414      -999.2500       516.5521         1.8228         1.9360      -999.2500        79.1349
       852.0750         1.9287        -1.0954         1.0000        10.4159         1.7510      -999.2500       518.4897         1.8257         1.9287      -999.2500        79.5524
       852.2000         1.9136        -0.8513         1.0000        10.3283         1.7584      -999.2500       522.5782         1.8242         1.9136      -999.2500        79.7852
       852.3250         1.8635        -0.6701         1.0000        10.4845         1.7286      -999.2500       536.7181         1.7861         1.8635      -999.2500        79.9552
       852.4500         1.7894        -0.5928         1.0000        10.4847         1.6793      -999.2500       559.0313         1.7265         1.7894      -999.2500        80.0212
       852.5750         1.7179        -0.5627         1.0000        10.5238         1.6326      -999.2500       582.2067         1.6695         1.7179      -999.2500        80.0402
       852.7000         1.6745        -0.6325         1.0000        10.4271         1.5929      -999.2500       597.1777         1.6282         1.6745      -999.2500        79.9592
       852.8250         1.6655        -0.5005         1.0000        10.8272         1.5557      -999.2500       600.3909         1.6026         1.6655      -999.2500        80.0799
       852.9500         1.6697        -0.3877         1.0000        11.2442         1.5289      -999.2500       598.9094         1.5884         1.6697      -999.2500        80.1815
       853.0750         1.6904        -0.3734         1.0000        11.5345         1.5310      -999.2500       591.6112         1.5979         1.6904      -999.2500        80.1847
       853.2000         1.7352        -0.3152         1.0000        11.3598         1.5835      -999.2500       576.2876         1.6475         1.7352      -999.2500        80.2316
       853.3250         1.8140        -0.1628         1.0000        10.9028         1.6888      -999.2500       551.4699         1.7423         1.8140      -999.2500        80.3728
       853.4500         1.9064        -0.0938         1.0000        10.3211         1.7934      -999.2500       524.7199         1.8419         1.9064      -999.2500        80.4306
       853.5750         1.9627        -0.1621         1.0000         9.8484         1.8486      -999.2500       509.5446         1.8976         1.9627      -999.2500        80.3511
       853.7000         1.9535        -0.3700         1.0000         9.6008         1.8335      -999.2500       511.9138         1.8849         1.9535      -999.2500        80.1320
       853.8250         1.9156        -0.4876         1.0000        10.1268         1.7831      -999.2500       522.0319         1.8397         1.9156      -999.2500        80.0032
       853.9500         1.9150        -0.6462         1.0000        10.6235         1.7572      -999.2500       522.2164         1.8240         1.9150      -999.2500        79.8334
       854.0750         1.9505        -0.8335         1.0000        10.9543         1.7780      -999.2500       512.7217         1.8507         1.9505      -999.2500        79.6349
       854.2000         1.9951        -0.9579         1.0000        10.9063         1.8263      -999.2500       501.2281         1.8977         1.9951      -999.2500        79.4993
       854.3250         2.0327        -0.9668         1.0000        10.9255         1.8777      -999.2500       491.9751         1.9436         2.0328      -999.2500        79.4791
       854.4500         2.0840        -0.8540         1.0000        10.9331         1.9339      -999.2500       479.9114         1.9978         2.0840      -999.2500        79.5808
       854.5750         2.1598        -0.7617         1.0000        10.4268         1.9910      -999.2500       463.0880         2.0626         2.1598      -999.2500        79.6619
       854.7000         2.2137        -0.7447         1.0000         9.7985         2.0288      -999.2500       451.7357         2.1070         2.2137      -999.2500        79.6677
       854.8250         2.1832        -0.8007         1.0000         9.4157         2.0270      -999.2500       458.1015         2.0935         2.1832      -999.2500        79.6244
       854.9500         2.1181        -1.0292         1.0000         9.3629         2.0178      -999.2500       472.1762         2.0611         2.1181      -999.2500        79.4088
       855.0750         2.0836        -1.3437         1.0000         9.3378         2.0298      -999.2500       479.9379         2.0534         2.0836      -999.2500        79.1070
       855.2000         2.0859        -1.7949         1.0000         9.1257         2.0640      -999.2500       479.4161         2.0737         2.0859      -999.2500        78.6685
       855.3250         2.1053        -2.5531         1.0000         9.0317         2.0914      -999.2500       474.9971         2.0976         2.1053      -999.2500        77.9230
       855.4500         2.1365        -3.4180         1.0000         9.0295         2.1139      -999.2500       468.0815         2.1239         2.1365      -999.2500        77.0709
       855.5750         2.1961        -4.3751         1.0000         9.0461         2.1660      -999.2500       455.4208         2.1793         2.1961      -999.2500        76.1265
       855.7000         2.3004        -5.2572         1.0000         9.0342         2.2685      -999.2500       434.7072         2.2826         2.3004      -999.2500        75.2572
       855.8250         2.4529        -5.9970         1.0000         8.8171         2.4186      -999.2500       407.8968         2.4337         2.4529      -999.2500        74.5302
       855.9500         2.6182        -6.6110        -1.0000         8.4996         2.5898      -999.2500       382.1817         2.6023         2.6182      -999.2500        73.9290
       856.0750         2.7815        -6.9071        -1.0000         8.3861         2.7831      -999.2500       359.6770         2.7824         2.7815      -999.2500        73.6457
       856.2000         2.9712        -6.8599        -1.0000         8.5804         3.0278      -999.2500       336.5587         3.0024         2.9712      -999.2500        73.7056
       856.3250         3.2404        -6.4648        -1.0000         8.9392         3.3598      -999.2500       308.9093         3.3056         3.2405      -999.2500        74.1135
       856.4500         3.4990        -5.8154        -1.0000         9.1040         3.6561      -999.2500       285.9450         3.5845         3.4990      -999.2500        74.7757
       856.5750         3.5306        -5.0223        -1.0000         9.1581         3.6896      -999.2500       283.2558         3.6172         3.5306      -999.2500        75.5815
       856.7000         3.2236        -4.1800        -1.0000         9.1547         3.3463      -999.2500       310.2102         3.2906         3.2236      -999.2500        76.4365
       856.8250         2.7617        -3.2817         1.0000         9.1488         2.8266      -999.2500       363.0772         2.7974         2.7617      -999.2500        77.3476
