#----------------------------------------------------------------------------------
#
# APPLICATION : SAHARA 3.2.110
# DATE        : 04/07/2024 19:46:19
# PROJECT     : VH-III
#
#----------------------------------------------------------------------------------
~Version Information
VERS. 2.0 : CWLS LOG ASCII STANDARD - VERSION 2.0
WRAP.  NO : One line per depth step
~Well Information
#MNEMONIC   .UNIT                                           VALUE : DESCRIPTION
#----------------------------------------------------------------------------------
STRT        .M                                           283.2000 : START DEPTH
STOP        .M                                          1987.2000 : STOP DEPTH
STEP        .M                                           125.0000 : STEP
NULL        .                                           -999.2500 : NULL VALUE
COMP        .                                                     : COMPANY
WELL        .                                             PVH-937 : WELL NAME
FLD         .                                                     : FIELD
LOC         .                                                     : LOCATION
PROV        .                                                     : PROVINCE
SRVC        .                                                     : SERVICE COMPANY
DATE        .                                                     : DATE
UWI         .                                          5420001652 : UNIQUE WELL ID
XCOORD      .                                        2539513.9200 : SURFACE X
YCOORD      .                                        4929943.0400 : SURFACE Y
ELEV        .M                                           388.2200 : SURFACE ELEV
~Curve Information
#MNEMONIC   .UNIT                       API CODES           CURVE : DESCRIPTION
#----------------------------------------------------------------------------------
DEPTH       .M                        00 000 00 00                : CURVE # 18
HDRS        .OHM.M                    00 000 00 00                : CURVE # 2
SPED        .MV                       00 000 00 00                : CURVE # 4
LITHO_VHIII .                         00 000 00 00                : CURVE # 5
CALA        .                         00 000 00 00                : CURVE # 10
HT24        .OHM.M                    00 000 00 00                : CURVE # 11
MPHIA       .FR.                      00 000 00 00                : CURVE # 12
HDCN        .                         00 000 00 00                : CURVE # 19
HMRS        .OHM.M                    00 000 00 00                : CURVE # 20
HT90        .OHM.M                    00 000 00 00                : CURVE # 21
MBVIA       .FR.                      00 000 00 00                : CURVE # 22
SPB         .MV                       00 000 00 00                : CURVE # 23
~A        DEPTH           HDRS           SPED    LITHO_VHIII           CALA           HT24          MPHIA           HDCN           HMRS           HT90          MBVIA            SPB
# ...
      1526.3250         3.0613        -1.7302         1.0000         8.8493         3.0720         0.0281       326.9227         3.0671         3.0616         0.0258        80.1856
      1526.4500         3.3450        -1.6915         1.0000         8.8390         3.3671         0.0271       299.4010         3.3572         3.3451         0.0237        80.2211
      1526.5750         3.7295        -1.7636         1.0000         8.8366         3.7823         0.0278       268.5695         3.7587         3.7295         0.0235        80.1460
      1526.7000         4.2590        -1.9205         1.0000         8.8371         4.3672         0.0292       234.7977         4.3184         4.2590         0.0242        79.9860
      1526.8250         4.9330        -2.0507         1.0000         8.8390         5.1339         0.0289       203.1589         5.0421         4.9337         0.0230        79.8527
      1526.9500         5.5442        -2.0824         1.0000         8.8432         5.8778         0.0270       180.6051         5.7245         5.5445         0.0197        79.8178
      1527.0750         5.8380        -2.1490         1.0000         8.8439         6.2647         0.0248       171.3056         6.0676         5.8380         0.0161        79.7482
      1527.2000         5.6918        -2.1458         1.0000         8.8430         6.0838         0.0235       175.6907         5.9031         5.6918         0.0139        79.7482
      1527.3250         5.2157        -2.0798         1.0000         8.8394         5.5219         0.0234       191.9570         5.3817         5.2153         0.0133        79.8111
      1527.4500         4.7419        -2.0261         1.0000         8.8401         5.0041         0.0229       211.1509         4.8842         4.7417         0.0124        79.8617
      1527.5750         4.3975        -1.9498         1.0000         8.8414         4.6023         0.0213       227.5210         4.5089         4.3975         0.0107        79.9349
      1527.7000         4.1894        -1.9556         1.0000         8.8474         4.2958         0.0188       238.6992         4.2478         4.1894         0.0085        79.9260
      1527.8250         4.0748        -1.8252         1.0000         8.8529         4.0876         0.0167       245.4353         4.0820         4.0747         0.0071        80.0533
      1527.9500         3.9065        -1.7579         1.0000         8.8648         3.9184         0.0152       256.1409         3.9132         3.9064         0.0064        80.1175
      1528.0750         3.5481        -1.7335         1.0000         8.8721         3.6180         0.0138       282.3301         3.5865         3.5481         0.0057        80.1387
      1528.2000         3.0041        -1.7051         1.0000         8.8788         3.0941         0.0121       332.8755         3.0534         3.0041         0.0049        80.1640
      1528.3250         2.4760        -1.5870         1.0000         8.9570         2.5437         0.0107       405.4608         2.5134         2.4756         0.0041        80.2790
      1528.4500         2.1022        -1.4992         1.0000         8.9977         2.1465         0.0095       477.1447         2.1267         2.1020         0.0037        80.3637
      1528.5750         1.8858        -1.4154         1.0000         9.0121         1.9189         0.0082       530.7757         1.9040         1.8858         0.0032        80.4444
      1528.7000         1.7891        -1.4382         1.0000         8.9610         1.8177         0.0067       558.9359         1.8049         1.7891         0.0026        80.4185
      1528.8250         1.7827        -1.4344         1.0000         8.9577         1.8128         0.0056       560.9765         1.7993         1.7827         0.0021        80.4192
      1528.9500         1.8339        -1.4511         1.0000         8.9218         1.8652         0.0054       545.4575         1.8511         1.8339         0.0020        80.3993
      1529.0750         1.9467        -1.5437         1.0000         8.8594         1.9853         0.0057       514.0074         1.9679         1.9467         0.0021        80.3037
      1529.2000         2.1391        -1.6390         1.0000         8.8071         2.1993         0.0060       467.4760         2.1722         2.1391         0.0022        80.2052
      1529.3250         2.4148        -1.7261         1.0000         8.7944         2.5278         0.0060       414.8430         2.4761         2.4151         0.0021        80.1150
      1529.4500         2.7108        -1.7748         1.0000         8.7855         2.8808         0.0059       369.5650         2.8026         2.7109         0.0020        80.0631
      1529.5750         2.9829        -1.8278         1.0000         8.7792         3.2012         0.0054       335.5706         3.1003         2.9829         0.0018        80.0071
      1529.7000         3.2245        -1.8863         1.0000         8.7779         3.4693         0.0046       310.1273         3.3560         3.2245         0.0015        79.9455
      1529.8250         3.4004        -1.9289         1.0000         8.7848         3.6677         0.0039       294.1321         3.5438         3.4005         0.0011        79.8997
      1529.9500         3.4984        -2.0139         1.0000         8.7958         3.7552         0.0035       285.8578         3.6365         3.4985         0.0010        79.8116
      1530.0750         3.5324        -2.1134         1.0000         8.8020         3.7741         0.0034       283.0906         3.6628         3.5324         0.0011        79.7090
      1530.2000         3.5247        -2.2018         1.0000         8.8007         3.7626         0.0033       283.7146         3.6530         3.5247         0.0011        79.6175
      1530.3250         3.4233        -2.1946         1.0000         8.7942         3.6436         0.0028       292.2210         3.5424         3.4232         0.0010        79.6216
      1530.4500         3.1941        -2.1409         1.0000         8.7875         3.3856         0.0024       313.4897         3.2978         3.1939         0.0010        79.6722
      1530.5750         2.9027        -2.0564         1.0000         8.7853         3.0684         0.0025       344.9138         2.9924         2.9027         0.0011        79.7536
      1530.7000         2.6652        -1.9870         1.0000         8.8020         2.8003         0.0033       375.2014         2.7386         2.6652         0.0018        79.8199
      1530.8250         2.5448        -1.7999         1.0000         8.8351         2.6678         0.0044       392.9889         2.6117         2.5447         0.0026        80.0039
      1530.9500         2.5094        -1.6115         1.0000         8.8494         2.6130         0.0053       398.5068         2.5660         2.5094         0.0031        80.1892
      1531.0750         2.5201        -1.5031         1.0000         8.8315         2.5979         0.0058       396.8269         2.5627         2.5201         0.0032        80.2944
      1531.2000         2.5314        -1.4247         1.0000         8.8028         2.5871         0.0062       395.0374         2.5621         2.5314         0.0031        80.3697
      1531.3250         2.5092        -1.4154         1.0000         8.7852         2.5559         0.0076       398.5434         2.5350         2.5092         0.0046        80.3759
      1531.4500         2.4673        -1.3815         1.0000         8.7819         2.5191         0.0100       405.3238         2.4958         2.4672         0.0076        80.4067
      1531.5750         2.4308        -1.3415         1.0000         8.7779         2.4943         0.0124       411.4016         2.4656         2.4308         0.0107        80.4436
      1531.7000         2.4218        -1.3657         1.0000         8.7752         2.4920         0.0136       412.9124         2.4603         2.4218         0.0124        80.4163
      1531.8250         2.4606        -1.4816         1.0000         8.7719         2.5285         0.0133       406.4321         2.4979         2.4607         0.0123        80.2973
