#----------------------------------------------------------------------------------
#
# APPLICATION : SAHARA 3.2.110
# DATE        : 04/07/2024 19:46:19
# PROJECT     : VH-III
#
#----------------------------------------------------------------------------------
~Version Information
VERS. 2.0 : CWLS LOG ASCII STANDARD - VERSION 2.0
WRAP.  NO : One line per depth step
~Well Information
#MNEMONIC   .UNIT                                           VALUE : DESCRIPTION
#----------------------------------------------------------------------------------
STRT        .M                                           283.2000 : START DEPTH
STOP        .M                                          1987.2000 : STOP DEPTH
STEP        .M                                           125.0000 : STEP
NULL        .                                           -999.2500 : NULL VALUE
COMP        .                                                     : COMPANY
WELL        .                                             PVH-937 : WELL NAME
FLD         .                                                     : FIELD
LOC         .                                                     : LOCATION
PROV        .                                                     : PROVINCE
SRVC        .                                                     : SERVICE COMPANY
DATE        .                                                     : DATE
UWI         .                                          5420001652 : UNIQUE WELL ID
XCOORD      .                                        2539513.9200 : SURFACE X
YCOORD      .                                        4929943.0400 : SURFACE Y
ELEV        .M                                           388.2200 : SURFACE ELEV
~Curve Information
#MNEMONIC   .UNIT                       API CODES           CURVE : DESCRIPTION
#----------------------------------------------------------------------------------
DEPTH       .M                        00 000 00 00                : CURVE # 18
HDRS        .OHM.M                    00 000 00 00                : CURVE # 2
SPED        .MV                       00 000 00 00                : CURVE # 4
LITHO_VHIII .                         00 000 00 00                : CURVE # 5
CALA        .                         00 000 00 00                : CURVE # 10
HT24        .OHM.M                    00 000 00 00                : CURVE # 11
MPHIA       .FR.                      00 000 00 00                : CURVE # 12
HDCN        .                         00 000 00 00                : CURVE # 19
HMRS        .OHM.M                    00 000 00 00                : CURVE # 20
HT90        .OHM.M                    00 000 00 00                : CURVE # 21
MBVIA       .FR.                      00 000 00 00                : CURVE # 22
SPB         .MV                       00 000 00 00                : CURVE # 23
~A        DEPTH           HDRS           SPED    LITHO_VHIII           CALA           HT24          MPHIA           HDCN           HMRS           HT90          MBVIA            SPB
# ...
       738.8250         1.5879        -1.5669         1.0000         9.9446         1.5554      -999.2500       629.8304         1.5697         1.5879      -999.2500        79.0388
       738.9500         1.6134        -1.4766         1.0000         9.8757         1.5681      -999.2500       619.8074         1.5879         1.6134      -999.2500        79.1366
       739.0750         1.5919        -1.4315         1.0000        10.0976         1.5211      -999.2500       628.2293         1.5517         1.5919      -999.2500        79.1892
       739.2000         1.5566        -1.3562         1.0000        10.2129         1.4770      -999.2500       642.4242         1.5113         1.5566      -999.2500        79.2719
       739.3250         1.5356        -1.2618         1.0000        10.4499         1.4792      -999.2500       651.2157         1.5036         1.5356      -999.2500        79.3737
       739.4500         1.5236        -1.1429         1.0000        10.8948         1.5103      -999.2500       656.3501         1.5161         1.5236      -999.2500        79.5002
       739.5750         1.5141        -1.0977         1.0000        11.3423         1.5376      -999.2500       660.4433         1.5271         1.5141      -999.2500        79.5528
       739.7000         1.5069        -0.9679         1.0000        11.3871         1.5332      -999.2500       663.6232         1.5214         1.5069      -999.2500        79.6902
       739.8250         1.4964        -0.8666         1.0000        11.1638         1.4922      -999.2500       668.2743         1.4940         1.4964      -999.2500        79.7990
       739.9500         1.4776        -0.8011         1.0000        11.0541         1.4355      -999.2500       676.8119         1.4539         1.4776      -999.2500        79.8720
       740.0750         1.4484        -0.7600         1.0000        11.2415         1.3747      -999.2500       690.4773         1.4065         1.4484      -999.2500        79.9206
       740.2000         1.4107        -0.7244         1.0000        11.2882         1.3222      -999.2500       708.8774         1.3601         1.4107      -999.2500        79.9637
       740.3250         1.3788        -0.6838         1.0000        11.0905         1.2948      -999.2500       725.2874         1.3308         1.3788      -999.2500        80.0118
       740.4500         1.3737        -0.6587         1.0000        10.8214         1.2952      -999.2500       727.9244         1.3289         1.3737      -999.2500        80.0444
       740.5750         1.4044        -0.6910         1.0000        11.0595         1.3254      -999.2500       712.1196         1.3593         1.4044      -999.2500        80.0195
       740.7000         1.4667        -0.6344         1.0000        11.5738         1.3808      -999.2500       681.7964         1.4177         1.4667      -999.2500        80.0836
       740.8250         1.5440        -0.6284         1.0000        11.9986         1.4377      -999.2500       647.7983         1.4831         1.5440      -999.2500        80.0971
       740.9500         1.5949        -0.5787         1.0000        11.7655         1.4734      -999.2500       627.0038         1.5251         1.5949      -999.2500        80.1543
       741.0750         1.6031        -0.5885         1.0000        11.5345         1.4801      -999.2500       623.7769         1.5324         1.6031      -999.2500        80.1520
       741.2000         1.5862        -0.5941         1.0000        11.5276         1.4708      -999.2500       630.4454         1.5200         1.5862      -999.2500        80.1539
       741.3250         1.5731        -0.6675         1.0000        11.9027         1.4869      -999.2500       635.6787         1.5241         1.5731      -999.2500        80.0880
       741.4500         1.5891        -0.8051         1.0000        11.8414         1.5421      -999.2500       629.3568         1.5626         1.5891      -999.2500        79.9579
       741.5750         1.6294        -0.8955         1.0000        11.3288         1.6189      -999.2500       613.7743         1.6235         1.6294      -999.2500        79.8750
       741.7000         1.6558        -0.9477         1.0000        10.6403         1.6810      -999.2500       603.9225         1.6697         1.6558      -999.2500        79.8303
       741.8250         1.6422        -1.0128         1.0000        10.6476         1.6745      -999.2500       608.9393         1.6600         1.6422      -999.2500        79.7727
       741.9500         1.6161        -1.1066         1.0000        10.9628         1.6133      -999.2500       618.7951         1.6144         1.6161      -999.2500        79.6864
       742.0750         1.5812        -1.1472         1.0000        11.1762         1.5407      -999.2500       632.4598         1.5584         1.5812      -999.2500        79.6533
       742.2000         1.5351        -1.1125         1.0000        11.0217         1.4788      -999.2500       651.4277         1.5033         1.5351      -999.2500        79.6955
       742.3250         1.4933        -1.0416         1.0000        10.9606         1.4228      -999.2500       669.7228         1.4533         1.4933      -999.2500        79.7739
       742.4500         1.4627        -0.9638         1.0000        11.1571         1.3795      -999.2500       683.7277         1.4153         1.4627      -999.2500        79.8591
       742.5750         1.4475        -0.9024         1.0000        11.6141         1.3591      -999.2500       690.8388         1.3970         1.4475      -999.2500        79.9280
       742.7000         1.4579        -0.8479         1.0000        12.0451         1.3582      -999.2500       685.9158         1.4008         1.4579      -999.2500        79.9900
       742.8250         1.4870        -0.7729         1.0000        12.2206         1.3709      -999.2500       672.5309         1.4202         1.4870      -999.2500        80.0725
       742.9500         1.4999        -0.7376         1.0000        11.8055         1.3835      -999.2500       666.7288         1.4329         1.4999      -999.2500        80.1153
       743.0750         1.4729        -0.6961         1.0000        11.1348         1.3822      -999.2500       678.9719         1.4211         1.4729      -999.2500        80.1643
       743.2000         1.4110        -0.7475         1.0000        10.6151         1.3673      -999.2500       708.6939         1.3864         1.4110      -999.2500        80.1204
       743.3250         1.3587        -0.8167         1.0000        10.5680         1.3559      -999.2500       736.0227         1.3571         1.3587      -999.2500        80.0587
       743.4500         1.3507        -0.8750         1.0000        10.7711         1.3640      -999.2500       740.3500         1.3581         1.3507      -999.2500        80.0079
       743.5750         1.3934        -0.8923         1.0000        10.7682         1.3978      -999.2500       717.8472         1.3958         1.3934      -999.2500        79.9981
       743.7000         1.4788        -0.9643         1.0000        10.6458         1.4511      -999.2500       676.2388         1.4633         1.4788      -999.2500        79.9336
       743.8250         1.5760        -1.0206         1.0000        10.5486         1.5104      -999.2500       634.7117         1.5388         1.5760      -999.2500        79.8848
       743.9500         1.6379        -1.0303         1.0000        10.5602         1.5558      -999.2500       610.5594         1.5913         1.6379      -999.2500        79.8826
       744.0750         1.6477        -0.9805         1.0000        10.6015         1.5702      -999.2500       606.9176         1.6037         1.6477      -999.2500        79.9398
       744.2000         1.6128        -0.9677         1.0000        10.6297         1.5507      -999.2500       620.0388         1.5777         1.6128      -999.2500        79.9601
       744.3250         1.5561        -0.8938         1.0000        11.0685         1.5039      -999.2500       642.7400         1.5267         1.5561      -999.2500        80.0385
