#----------------------------------------------------------------------------------
#
# APPLICATION : SAHARA 3.2.110
# DATE        : 04/07/2024 19:46:19
# PROJECT     : VH-III
#
#----------------------------------------------------------------------------------
~Version Information
VERS. 2.0 : CWLS LOG ASCII STANDARD - VERSION 2.0
WRAP.  NO : One line per depth step
~Well Information
#MNEMONIC   .UNIT                                           VALUE : DESCRIPTION
#----------------------------------------------------------------------------------
STRT        .M                                           283.2000 : START DEPTH
STOP        .M                                          1987.2000 : STOP DEPTH
STEP        .M                                           125.0000 : STEP
NULL        .                                           -999.2500 : NULL VALUE
COMP        .                                                     : COMPANY
WELL        .                                             PVH-937 : WELL NAME
FLD         .                                                     : FIELD
LOC         .                                                     : LOCATION
PROV        .                                                     : PROVINCE
SRVC        .                                                     : SERVICE COMPANY
DATE        .                                                     : DATE
UWI         .                                          5420001652 : UNIQUE WELL ID
XCOORD      .                                        2539513.9200 : SURFACE X
YCOORD      .                                        4929943.0400 : SURFACE Y
ELEV        .M                                           388.2200 : SURFACE ELEV
~Curve Information
#MNEMONIC   .UNIT                       API CODES           CURVE : DESCRIPTION
#----------------------------------------------------------------------------------
DEPTH       .M                        00 000 00 00                : CURVE # 18
HDRS        .OHM.M                    00 000 00 00                : CURVE # 2
SPED        .MV                       00 000 00 00                : CURVE # 4
LITHO_VHIII .                         00 000 00 00                : CURVE # 5
CALA        .                         00 000 00 00                : CURVE # 10
HT24        .OHM.M                    00 000 00 00                : CURVE # 11
MPHIA       .FR.                      00 000 00 00                : CURVE # 12
HDCN        .                         00 000 00 00                : CURVE # 19
HMRS        .OHM.M                    00 000 00 00                : CURVE # 20
HT90        .OHM.M                    00 000 00 00                : CURVE # 21
MBVIA       .FR.                      00 000 00 00                : CURVE # 22
SPB         .MV                       00 000 00 00                : CURVE # 23
~A        DEPTH           HDRS           SPED    LITHO_VHIII           CALA           HT24          MPHIA           HDCN           HMRS           HT90          MBVIA            SPB
# ...
      1756.9500         5.4255        -2.2576         1.0000         8.6105         5.6307         0.0435       184.3228         5.5376         5.4254         0.0385        78.7293
      1757.0750         5.2295        -2.0549         1.0000         8.6047         5.3897         0.0482       191.2873         5.3173         5.2295         0.0446        78.9285
      1757.2000         4.8724        -1.8808         1.0000         8.6101         5.0344         0.0521       205.2375         4.9611         4.8724         0.0495        79.0991
      1757.3250         4.7199        -1.7998         1.0000         8.6003         4.8897         0.0549       211.8920         4.8126         4.7200         0.0526        79.1767
      1757.4500         5.0698        -1.8487        -1.0000         8.5827         5.3194         0.0571       197.7931         5.2052         5.0701         0.0547        79.1243
      1757.5750         6.1490        -2.0965        -1.0000         8.5589         6.6384         0.0586       163.6722         6.4114         6.1490         0.0556        78.8731
      1757.7000         8.0810        -2.5550        -1.0000         8.5438         9.0668         0.0591       123.7465         8.6005         8.0810         0.0557        78.4112
      1757.8250        10.0492        -3.0477        -1.0000         8.5488        11.5118         0.0586        99.6126        10.8118        10.0501         0.0551        77.9150
      1757.9500        10.1659        -3.4293        -1.0000         8.5550        11.3523         0.0585        98.5620        10.7922        10.1654         0.0551        77.5299
      1758.0750         8.4214        -3.5857         1.0000         8.5568         9.0732         0.0586       119.5984         8.7712         8.4214         0.0553        77.3703
      1758.2000         6.3488        -3.4151         1.0000         8.5521         6.7397         0.0586       157.5104         6.5602         6.3488         0.0554        77.5374
      1758.3250         4.8541        -3.0584         1.0000         8.5539         5.1624         0.0567       207.5568         5.0213         4.8529         0.0533        77.8908
      1758.4500         3.8574        -2.5955         1.0000         8.5756         4.1383         0.0535       260.8824         4.0087         3.8570         0.0496        78.3504
      1758.5750         3.2990        -2.0830         1.0000         8.6096         3.5660         0.0491       303.6790         3.4423         3.2990         0.0443        78.8592
      1758.7000         3.1137        -1.6854         1.0000         8.6151         3.3784         0.0441       321.1609         3.2554         3.1137         0.0379        79.2534
      1758.8250         3.2680        -1.3535         1.0000         8.6263         3.5484         0.0387       306.3340         3.4179         3.2683         0.0305        79.5819
      1758.9500         3.6726        -1.2719         1.0000         8.5902         3.9970         0.0346       273.1957         3.8459         3.6729         0.0248        79.6601
      1759.0750         4.3818        -1.2968        -1.0000         8.5678         4.7985         0.0331       229.2825         4.6038         4.3818         0.0226        79.6317
      1759.2000         5.5644        -1.3216        -1.0000         8.5255         6.1684         0.0338       179.7141         5.8845         5.5644         0.0236        79.6129
      1759.3250         7.1742        -1.2784        -1.0000         8.5248         8.1161         0.0348       139.9432         7.6676         7.1755         0.0254        79.6645
      1759.4500         7.9260        -1.1436        -1.0000         8.5461         9.1636         0.0360       126.1750         8.5689         7.9259         0.0271        79.8077
      1759.5750         7.0143        -1.0149         1.0000         8.5796         8.1010         0.0374       143.2149         7.5791         7.0143         0.0287        79.9448
      1759.7000         5.5469        -0.9299         1.0000         8.6098         6.2289         0.0383       180.2803         5.9062         5.5469         0.0295        80.0381
      1759.8250         4.7024        -0.9982         1.0000         8.6199         5.1265         0.0377       212.8531         4.9292         4.7020         0.0283        79.9782
      1759.9500         4.4665        -1.0623         1.0000         8.6183         4.7685         0.0363       223.8887         4.6294         4.4665         0.0262        79.9224
      1760.0750         4.6472        -1.2802         1.0000         8.6165         4.9314         0.0353       215.2868         4.8009         4.6472         0.0247        79.7129
      1760.2000         4.9942        -1.5556         1.0000         8.6134         5.3325         0.0348       200.2310         5.1767         4.9942         0.0244        79.4459
      1760.3250         5.2125        -1.9527         1.0000         8.6114         5.6000         0.0345       191.8500         5.4208         5.2126         0.0245        79.0570
      1760.4500         5.2760        -2.3250         1.0000         8.6118         5.7363         0.0345       189.5380         5.5221         5.2760         0.0246        78.6931
      1760.5750         5.4411        -2.6031         1.0000         8.6132         6.0217         0.0348       183.8347         5.7490         5.4411         0.0249        78.4234
      1760.7000         6.0193        -2.8211        -1.0000         8.6113         6.7851         0.0346       166.1311         6.4220         6.0193         0.0247        78.2138
      1760.8250         7.1513        -3.0130        -1.0000         8.6069         8.2297         0.0330       140.2991         7.7120         7.1525         0.0233        78.0302
      1760.9500         8.1053        -3.1174        -1.0000         8.6038         9.3596         0.0307       123.4644         8.7572         8.1055         0.0210        77.9342
      1761.0750         7.8845        -3.1337        -1.0000         8.6041         8.8758         0.0287       126.9567         8.4057         7.8845         0.0190        77.9263
      1761.2000         6.5083        -2.9380         1.0000         8.6110         7.0326         0.0270       153.6498         6.7895         6.5083         0.0175        78.1304
      1761.3250         4.9736        -2.8503         1.0000         8.6434         5.1705         0.0254       202.7951         5.0818         4.9724         0.0160        78.2265
      1761.4500         3.8810        -2.7080         1.0000         8.6850         3.9527         0.0229       259.6216         3.9207         3.8806         0.0141        78.3772
      1761.5750         3.2529        -2.6477         1.0000         8.6952         3.2776         0.0195       308.1990         3.2665         3.2529         0.0116        78.4458
      1761.7000         2.9706        -2.6558         1.0000         8.6930         2.9895         0.0161       336.6326         2.9811         2.9706         0.0092        78.4461
      1761.8250         2.9255        -2.7213         1.0000         8.6565         2.9714         0.0142       341.8299         2.9508         2.9255         0.0079        78.3890
      1761.9500         2.9922        -2.9179         1.0000         8.6429         3.0805         0.0135       334.2688         3.0406         2.9923         0.0075        78.2006
      1762.0750         3.1374        -3.0347         1.0000         8.6245         3.2635         0.0129       318.8519         3.2062         3.1374         0.0075        78.0923
      1762.2000         3.3059        -2.9396         1.0000         8.6114         3.4444         0.0123       302.4880         3.3814         3.3059         0.0073        78.1958
      1762.3250         3.3016        -2.7376         1.0000         8.6103         3.3948         0.0119       303.0142         3.3528         3.3014         0.0071        78.4062
      1762.4500         3.0366        -2.3978         1.0000         8.6229         3.0784         0.0119       330.0820         3.0597         3.0364         0.0072        78.7544
