#----------------------------------------------------------------------------------
#
# APPLICATION : SAHARA 3.2.110
# DATE        : 04/07/2024 19:46:17
# PROJECT     : VH-III
#
#----------------------------------------------------------------------------------
~Version Information
VERS. 2.0 : CWLS LOG ASCII STANDARD - VERSION 2.0
WRAP.  NO : One line per depth step
~Well Information
#MNEMONIC   .UNIT                                           VALUE : DESCRIPTION
#----------------------------------------------------------------------------------
STRT        .M                                           313.4750 : START DEPTH
STOP        .M                                          1692.9750 : STOP DEPTH
STEP        .M                                           125.0000 : STEP
NULL        .                                           -999.2500 : NULL VALUE
COMP        .                                                     : COMPANY
WELL        .                                            PVH-1007 : WELL NAME
FLD         .                                                     : FIELD
LOC         .                                                     : LOCATION
PROV        .                                                     : PROVINCE
SRVC        .                                                     : SERVICE COMPANY
DATE        .                                                     : DATE
UWI         .                                          5420000089 : UNIQUE WELL ID
XCOORD      .                                        2539987.0400 : SURFACE X
YCOORD      .                                        4929711.0400 : SURFACE Y
ELEV        .M                                           417.7500 : SURFACE ELEV
~Curve Information
#MNEMONIC   .UNIT                       API CODES           CURVE : DESCRIPTION
#----------------------------------------------------------------------------------
DEPTH       .M                        00 000 00 00                : CURVE # 19
HMRS        .OHM.M                    00 000 00 00                : CURVE # 2
SPED        .MV                       00 000 00 00                : CURVE # 4
CALA        .                         00 000 00 00                : CURVE # 5
MBVIA       .FR.                      00 000 00 00                : CURVE # 6
HDCN        .                         00 000 00 00                : CURVE # 11
HT90        .OHM.M                    00 000 00 00                : CURVE # 12
MPHIA       .FR.                      00 000 00 00                : CURVE # 13
CILD        .                         00 000 00 00                : CURVE # 20
HDRS        .OHM.M                    00 000 00 00                : CURVE # 21
HT24        .OHM.M                    00 000 00 00                : CURVE # 22
LITHO_VHIII .                         00 000 00 00                : CURVE # 23
MFFIA       .FR.                      00 000 00 00                : CURVE # 24
SPB         .MV                       00 000 00 00                : CURVE # 25
~A        DEPTH           HMRS           SPED           CALA          MBVIA           HDCN           HT90          MPHIA           CILD           HDRS           HT24    LITHO_VHIII          MFFIA            SPB
# ...
      1320.4750         1.9360         0.2722         8.9703         0.0127       538.3161         1.8577         0.0236       538.3158         1.8577         2.0036         1.0000         0.0109        79.2027
      1320.6000         1.9151         0.4106         8.9102         0.0113       541.2971         1.8474         0.0220       541.3013         1.8474         1.9729         1.0000         0.0107        79.4188
      1320.7250         1.8732         0.2825         8.8847         0.0105       549.1768         1.8210         0.0217       549.1869         1.8210         1.9173         1.0000         0.0111        79.3685
      1320.8500         1.8245         0.0785         8.9896         0.0104       560.8382         1.7831         0.0227       560.8418         1.7831         1.8590         1.0000         0.0123        79.2422
      1320.9750         1.8017        -0.1196         9.1158         0.0109       566.6038         1.7649         0.0249       566.6135         1.7649         1.8323         1.0000         0.0140        79.1218
      1321.1000         1.8179        -0.2884         9.2327         0.0118       561.4326         1.7812         0.0275       561.4193         1.7812         1.8484         1.0000         0.0157        79.0308
      1321.2250         1.8603        -0.4264         9.3451         0.0129       548.9467         1.8218         0.0304       548.9459         1.8218         1.8923         1.0000         0.0176        78.9598
      1321.3500         1.9042        -0.5639         9.5095         0.0140       536.5370         1.8640         0.0336       536.5325         1.8640         1.9377         1.0000         0.0196        78.8461
      1321.4750         1.9437        -0.7236         9.6426         0.0149       525.5865         1.9028         0.0364       525.5801         1.9028         1.9779         1.0000         0.0215        78.7104
      1321.6000         1.9817        -0.8952         9.5969         0.0153       515.3160         1.9406         0.0385       515.3046         1.9406         2.0158         1.0000         0.0232        78.5626
      1321.7250         2.0204        -1.0635         9.5460         0.0153       505.0082         1.9802         0.0400       505.0123         1.9802         2.0537         1.0000         0.0247        78.4182
      1321.8500         2.0553        -1.2250         9.4798         0.0151       495.7380         2.0173         0.0403       495.7317         2.0173         2.0868         1.0000         0.0252        78.2805
      1321.9750         2.0780        -1.3386         9.5350         0.0147       489.6953         2.0421         0.0394       489.7031         2.0421         2.1076         1.0000         0.0247        78.1908
      1322.1000         2.0780        -1.3947         9.6613         0.0143       489.6822         2.0421         0.0376       489.6920         2.0421         2.1076         1.0000         0.0234        78.1586
      1322.2250         2.0453        -1.4308         9.7454         0.0138       498.5538         2.0060         0.0357       498.5554         2.0060         2.0778         1.0000         0.0219        78.1464
      1322.3500         2.0021        -1.5055         9.5733         0.0134       510.7533         1.9581         0.0336       510.7427         1.9581         2.0388         1.0000         0.0202        78.0955
      1322.4750         1.9854        -1.5823         9.3097         0.0134       516.0132         1.9380         0.0318       516.0028         1.9380         2.0250         1.0000         0.0185        78.0425
      1322.6000         2.0318        -1.6725         9.0570         0.0141       503.8403         1.9848         0.0308       503.8291         1.9848         2.0710         1.0000         0.0168        77.9762
      1322.7250         2.1715        -1.8675         8.9930         0.0159       469.8010         2.1307         0.0308       469.8006         2.1307         2.2052         1.0000         0.0150        77.8051
      1322.8500         2.3755        -2.2253         8.9238         0.0179       426.9841         2.3462         0.0312       426.9812         2.3461         2.3998         1.0000         0.0133        77.4712
      1322.9750         2.6271        -2.6654         8.8357         0.0197       383.1491         2.6141         0.0320       383.1459         2.6139         2.6380         1.0000         0.0123        77.0549
      1323.1000         2.9400        -3.1308         8.7533         0.0213       339.6633         2.9441         0.0332       339.6624         2.9441         2.9367         1.0000         0.0119        76.6134
      1323.2250         3.3693        -3.5649         8.6698         0.0230       297.0860         3.3739         0.0350       297.0835         3.3739         3.3658         1.0000         0.0120        76.2032
      1323.3500         3.8812        -4.0214         8.6269         0.0268       260.1260         3.8541         0.0385       260.1247         3.8538         3.9037         1.0000         0.0117        75.7706
      1323.4750         4.3608        -4.4201         8.6022         0.0333       234.4476         4.2698         0.0443       234.4471         4.2694         4.4375         1.0000         0.0109        75.3957
      1323.6000         4.7119        -4.7065         8.5821         0.0404       221.5483         4.5137         0.0505       221.5477         4.5137         4.8834         1.0000         0.0101        75.1331
      1323.7250         4.8198        -4.7719         8.5684         0.0426       220.7225         4.5309         0.0532       220.7246         4.5309         5.0790         1.0000         0.0106        75.0916
      1323.8500         4.6584        -4.7506         8.5677         0.0404       229.6815         4.3564         0.0528       229.6813         4.3565         4.9316         1.0000         0.0124        75.1367
      1323.9750         4.2639        -4.6191         8.5401         0.0378       247.7991         4.0387         0.0521       247.7983         4.0391         4.4624         1.0000         0.0143        75.2921
      1324.1000         3.8321        -4.4689         8.4941         0.0375       269.5751         3.7095         0.0534       269.5781         3.7095         3.9362         1.0000         0.0159        75.4662
      1324.2250         3.5999        -4.4810         8.4427         0.0396       281.6098         3.5510         0.0569       281.6127         3.5510         3.6401         1.0000         0.0173        75.4779
      1324.3500         3.6602        -4.7867         8.4482         0.0407       272.7477         3.6703         0.0595       272.7480         3.6701         3.6525         1.0000         0.0187        75.1962
      1324.4750         4.0914        -5.3730         8.4613         0.0407       240.1628         4.1774         0.0609       240.1608         4.1768         4.0262         1.0000         0.0202        74.6337
      1324.6000         4.9275        -6.1861         8.4453         0.0402       195.8215         5.1067         0.0618       195.8212         5.1067         4.7929         1.0000         0.0216        73.8444
      1324.7250         5.9610        -7.0550         8.3984         0.0395       160.9070         6.2309         0.0622       160.9063         6.2309         5.7613        -1.0000         0.0227        72.9994
      1324.8500         6.6382        -7.8525         8.3869         0.0379       144.2248         6.9367         0.0616       144.2246         6.9365         6.4177        -1.0000         0.0238        72.2258
      1324.9750         6.7284        -8.4783         8.4413         0.0352       143.5085         6.9686         0.0600       143.5092         6.9688         6.5478        -1.0000         0.0247        71.6238
      1325.1000         6.4411        -8.7287         8.5103         0.0328       151.3501         6.6072         0.0580       151.3500         6.6072         6.3141        -1.0000         0.0252        71.3973
