#----------------------------------------------------------------------------------
#
# APPLICATION : SAHARA 3.2.110
# DATE        : 04/07/2024 19:46:15
# PROJECT     : VH-III
#
#----------------------------------------------------------------------------------
~Version Information
VERS. 2.0 : CWLS LOG ASCII STANDARD - VERSION 2.0
WRAP.  NO : One line per depth step
~Well Information
#MNEMONIC   .UNIT                                           VALUE : DESCRIPTION
#----------------------------------------------------------------------------------
STRT        .M                                           200.0000 : START DEPTH
STOP        .M                                          1624.7500 : STOP DEPTH
STEP        .M                                           125.0000 : STEP
NULL        .                                           -999.2500 : NULL VALUE
COMP        .                                                     : COMPANY
WELL        .                                             PVH-941 : WELL NAME
FLD         .                                                     : FIELD
LOC         .                                                     : LOCATION
PROV        .                                                     : PROVINCE
SRVC        .                                                     : SERVICE COMPANY
DATE        .                                                     : DATE
UWI         .                                          5420002501 : UNIQUE WELL ID
XCOORD      .                                        2539607.2000 : SURFACE X
YCOORD      .                                        4929727.3600 : SURFACE Y
ELEV        .M                                           399.3400 : SURFACE ELEV
~Curve Information
#MNEMONIC   .UNIT                       API CODES           CURVE : DESCRIPTION
#----------------------------------------------------------------------------------
DEPTH       .M                        00 000 00 00                : CURVE # 19
DT          .US/FT                    00 000 00 00                : CURVE # 2
RHOB        .                         00 000 00 00                : CURVE # 3
BS          .                         00 000 00 00                : CURVE # 6
MBVIA       .FR.                      00 000 00 00                : CURVE # 7
CILD        .                         00 000 00 00                : CURVE # 10
HDRS        .OHM.M                    00 000 00 00                : CURVE # 11
MPHIA       .FR.                      00 000 00 00                : CURVE # 12
SPED        .MV                       00 000 00 00                : CURVE # 13
CALA        .                         00 000 00 00                : CURVE # 20
DPHI        .FR.                      00 000 00 00                : CURVE # 21
HDCN        .                         00 000 00 00                : CURVE # 22
LITHO_VHIII .                         00 000 00 00                : CURVE # 23
MFFIA       .FR.                      00 000 00 00                : CURVE # 24
PE          .                         00 000 00 00                : CURVE # 25
SPB         .MV                       00 000 00 00                : CURVE # 26
SPHI        .FR.                      00 000 00 00                : CURVE # 27
~A        DEPTH             DT           RHOB             BS          MBVIA           CILD           HDRS          MPHIA           SPED           CALA           DPHI           HDCN    LITHO_VHIII          MFFIA             PE            SPB           SPHI
# ...
       984.0000       103.6320         2.3359         8.5000         0.0010       530.0822         1.8865         0.0048        -1.2963         8.9157         0.1904       530.0841         1.0000         0.0038         2.8542        80.1470         0.3653
       984.1250       103.2032         2.3275         8.5000         0.0011       549.9483         1.8186         0.0055        -1.1218         8.8530         0.1955       549.9438         1.0000         0.0044         2.8333        80.3215         0.3684
       984.2500       102.7945         2.3273         8.5000         0.0013       565.5446         1.7683         0.0064        -1.0759         8.8045         0.1956       565.5347         1.0000         0.0051         2.8093        80.3674         0.3697
       984.3750       102.5350         2.3303         8.5000         0.0015       573.1133         1.7449         0.0073        -0.9957         8.7946         0.1937       573.1156         1.0000         0.0058         2.8133        80.4476         0.3631
       984.5000       104.2640         2.3350         8.5000         0.0018       570.5809         1.7526         0.0084        -0.9412         8.8416         0.1909       570.5954         1.0000         0.0066         2.8672        80.5021         0.3543
       984.6250       106.4505         2.2840         8.5000         0.0022       562.9391         1.7764         0.0096        -1.1125         8.9528         0.2218       562.9360         1.0000         0.0074         2.8877        80.3308         0.3603
       984.7500       108.6365         2.2300         8.5000         0.0027       560.7589         1.7833         0.0110        -1.4297         9.1380         0.2545       560.7576         1.0000         0.0083         2.8364        80.0136         0.3811
       984.8750       110.8225         2.1979         8.5000         0.0033       562.6773         1.7772         0.0126        -1.6997         9.3231         0.2740       562.6844         1.0000         0.0093         2.7939        79.7436         0.4106
       985.0000       113.0090         2.2056         8.5000         0.0041       565.7709         1.7675         0.0144        -1.8039         9.4284         0.2693       565.7786         1.0000         0.0103         2.8410        79.6394         0.4340
       985.1250       113.5992         2.2197         8.5000         0.0049       569.3351         1.7564         0.0159        -1.6994         9.3558         0.2607       569.3335         1.0000         0.0109         2.8807        79.7439         0.4519
       985.2500       110.6125         2.2494         8.5000         0.0060       573.2678         1.7444         0.0169        -1.5892         9.2261         0.2428       573.2772         1.0000         0.0109         2.8827        79.8541         0.4529
       985.3750       108.2257         2.2792         8.5000         0.0071       575.8810         1.7365         0.0176        -1.4576         9.1265         0.2247       575.8849         1.0000         0.0105         2.8809        79.9857         0.4366
       985.5000       107.1170         2.3084         8.5000         0.0075       575.9705         1.7362         0.0171        -1.3116         8.9556         0.2070       575.9567         1.0000         0.0096         2.8895        80.1317         0.4065
       985.6250       104.9192         2.3132         8.5000         0.0062       573.3880         1.7440         0.0141        -1.2115         8.9542         0.2041       573.3882         1.0000         0.0079         2.8631        80.2318         0.3912
       985.7500       103.2710         2.3200         8.5000         0.0040       569.1091         1.7572         0.0099        -1.1284         8.9555         0.1999       569.1098         1.0000         0.0059         2.8516        80.3148         0.3841
       985.8750       102.2077         2.3312         8.5000         0.0029       560.8157         1.7832         0.0074        -1.1226         8.9185         0.1932       560.8121         1.0000         0.0044         2.8032        80.3207         0.3795
       986.0000       100.4050         2.3369         8.5000         0.0036       545.9708         1.8316         0.0074        -1.0709         8.9157         0.1898       545.9698         1.0000         0.0038         2.7198        80.3724         0.3722
       986.1250        99.8054         2.3370         8.5000         0.0053       529.3992         1.8891         0.0091        -0.9022         8.8957         0.1897       529.3986         1.0000         0.0038         2.7015        80.5411         0.3622
       986.2500        99.2070         2.3343         8.5000         0.0062       513.7817         1.9466         0.0103        -0.8105         8.8530         0.1913       513.7750         1.0000         0.0041         2.7155        80.6328         0.3491
       986.3750       100.0161         2.3322         8.5000         0.0063       498.9903         2.0042         0.0112        -0.7875         8.8102         0.1926       498.9942         1.0000         0.0048         2.6974        80.6558         0.3348
       986.5000       101.7660         2.3338         8.5000         0.0060       484.8955         2.0623         0.0118        -0.9217         8.7846         0.1916       484.8908         1.0000         0.0059         2.6957        80.5216         0.3252
       986.6250       102.3661         2.3404         8.5000         0.0057       473.9710         2.1099         0.0123        -1.1244         8.8459         0.1877       473.9735         1.0000         0.0066         2.7571        80.3189         0.3241
       986.7500       102.7265         2.3499         8.5000         0.0055       467.5442         2.1389         0.0124        -1.2387         8.9129         0.1819       467.5417         1.0000         0.0070         2.8542        80.2046         0.3235
       986.8750       102.2171         2.3501         8.5000         0.0056       466.9036         2.1418         0.0128        -1.3443         8.9627         0.1818       466.8946         1.0000         0.0073         2.8849        80.0990         0.3290
       987.0000       101.4480         2.3484         8.5000         0.0068       471.4757         2.1210         0.0146        -1.4642         8.9271         0.1828       471.4694         1.0000         0.0078         2.8173        79.9791         0.3434
       987.1250       100.7592         2.3354         8.5000         0.0096       475.2908         2.1040         0.0184        -1.5398         8.8587         0.1907       475.2962         1.0000         0.0088         2.7527        79.9035         0.3542
       987.2500       100.3105         2.3173         8.5000         0.0128       471.3089         2.1219         0.0228        -1.5640         8.7419         0.2017       471.3010         1.0000         0.0100         2.6865        79.8793         0.3545
       987.3750       100.1910         2.3018         8.5000         0.0154       459.8631         2.1748         0.0272        -1.5752         8.6635         0.2110       459.8692         1.0000         0.0117         2.6557        79.8681         0.3522
       987.5000       100.4120         2.2989         8.5000         0.0176       447.7078         2.2336         0.0319        -1.6065         8.6707         0.2128       447.7136         1.0000         0.0142         2.6181        79.8368         0.3482
       987.6250       100.6420         2.2982         8.5000         0.0214       438.7512         2.2793         0.0383        -1.6850         8.6892         0.2132       438.7531         1.0000         0.0170         2.5150        79.7583         0.3376
       987.7500       100.7925         2.2942         8.5000         0.0296       427.8266         2.3378         0.0486        -1.6491         8.6849         0.2157       427.8182         1.0000         0.0191         2.4832        79.7942         0.3298
       987.8750       100.7930         2.2843         8.5000         0.0422       408.5228         2.4487         0.0629        -1.7590         8.6721         0.2217       408.5256         1.0000         0.0207         2.4812        79.6843         0.3314
