#----------------------------------------------------------------------------------
#
# APPLICATION : SAHARA 3.2.110
# DATE        : 04/07/2024 19:46:17
# PROJECT     : VH-III
#
#----------------------------------------------------------------------------------
~Version Information
VERS. 2.0 : CWLS LOG ASCII STANDARD - VERSION 2.0
WRAP.  NO : One line per depth step
~Well Information
#MNEMONIC   .UNIT                                           VALUE : DESCRIPTION
#----------------------------------------------------------------------------------
STRT        .M                                           313.4750 : START DEPTH
STOP        .M                                          1692.9750 : STOP DEPTH
STEP        .M                                           125.0000 : STEP
NULL        .                                           -999.2500 : NULL VALUE
COMP        .                                                     : COMPANY
WELL        .                                            PVH-1007 : WELL NAME
FLD         .                                                     : FIELD
LOC         .                                                     : LOCATION
PROV        .                                                     : PROVINCE
SRVC        .                                                     : SERVICE COMPANY
DATE        .                                                     : DATE
UWI         .                                          5420000089 : UNIQUE WELL ID
XCOORD      .                                        2539987.0400 : SURFACE X
YCOORD      .                                        4929711.0400 : SURFACE Y
ELEV        .M                                           417.7500 : SURFACE ELEV
~Curve Information
#MNEMONIC   .UNIT                       API CODES           CURVE : DESCRIPTION
#----------------------------------------------------------------------------------
DEPTH       .M                        00 000 00 00                : CURVE # 19
HMRS        .OHM.M                    00 000 00 00                : CURVE # 2
SPED        .MV                       00 000 00 00                : CURVE # 4
CALA        .                         00 000 00 00                : CURVE # 5
MBVIA       .FR.                      00 000 00 00                : CURVE # 6
HDCN        .                         00 000 00 00                : CURVE # 11
HT90        .OHM.M                    00 000 00 00                : CURVE # 12
MPHIA       .FR.                      00 000 00 00                : CURVE # 13
CILD        .                         00 000 00 00                : CURVE # 20
HDRS        .OHM.M                    00 000 00 00                : CURVE # 21
HT24        .OHM.M                    00 000 00 00                : CURVE # 22
LITHO_VHIII .                         00 000 00 00                : CURVE # 23
MFFIA       .FR.                      00 000 00 00                : CURVE # 24
SPB         .MV                       00 000 00 00                : CURVE # 25
~A        DEPTH           HMRS           SPED           CALA          MBVIA           HDCN           HT90          MPHIA           CILD           HDRS           HT24    LITHO_VHIII          MFFIA            SPB
# ...
      1500.9750         4.1854        -4.0997         8.5211         0.0040       241.4520         4.1416         0.0099       241.4505         4.1416         4.2213         1.0000         0.0059        76.1682
      1501.1000         4.1786        -4.3741         8.5229         0.0039       242.7849         4.1189         0.0092       242.7833         4.1189         4.2276         1.0000         0.0053        75.9133
      1501.2250         4.2189        -4.3726         8.5308         0.0042       240.7313         4.1540         0.0086       240.7331         4.1540         4.2722         1.0000         0.0044        75.9343
      1501.3500         4.2122        -4.1725         8.5291         0.0046       240.2583         4.1623         0.0080       240.2575         4.1623         4.2531         1.0000         0.0034        76.1540
      1501.4750         4.0080        -3.8840         8.5280         0.0048       250.9552         3.9865         0.0078       250.9550         3.9867         4.0249         1.0000         0.0029        76.4620
      1501.6000         3.5852        -3.5434         8.5310         0.0049       278.4398         3.5914         0.0078       278.4430         3.5914         3.5802         1.0000         0.0029        76.8221
      1501.7250         3.1046        -3.1995         8.5436         0.0049       320.8206         3.1241         0.0080       320.8194         3.1241         3.0892         1.0000         0.0031        77.1855
      1501.8500         2.7380        -3.0587         8.5542         0.0048       363.4449         2.7564         0.0081       363.4495         2.7564         2.7233         1.0000         0.0033        77.3459
      1501.9750         2.5374        -3.0540         8.5603         0.0045       392.9439         2.5458         0.0081       392.9493         2.5460         2.5304         1.0000         0.0036        77.3701
      1502.1000         2.5017        -3.1534         8.5612         0.0043       400.3588         2.4978         0.0083       400.3523         2.4978         2.5048         1.0000         0.0040        77.2902
      1502.2250         2.6121        -3.4092         8.5508         0.0051       385.5491         2.5946         0.0093       385.5539         2.5946         2.6264         1.0000         0.0042        77.0539
      1502.3500         2.7801        -3.7022         8.5412         0.0068       364.4962         2.7450         0.0112       364.4980         2.7450         2.8090         1.0000         0.0043        76.7805
      1502.4750         2.9565        -4.0374         8.5344         0.0088       344.7888         2.9015         0.0132       344.7892         2.9013         3.0024         1.0000         0.0044        76.4648
      1502.6000         3.1403        -4.2616         8.5665         0.0097       325.9139         3.0683         0.0145       325.9134         3.0683         3.2003         1.0000         0.0048        76.2601
      1502.7250         3.3581        -4.1047         8.5755         0.0094       305.1819         3.2787         0.0152       305.1792         3.2787         3.4243         1.0000         0.0058        76.4365
      1502.8500         3.6048        -3.9198         8.5642         0.0089       284.3765         3.5194         0.0157       284.3757         3.5194         3.6762         1.0000         0.0068        76.6410
      1502.9750         3.8882        -3.7127         8.5327         0.0093       263.6400         3.7960         0.0169       263.6410         3.7958         3.9657         1.0000         0.0076        76.8676
      1503.1000         4.2059        -3.3802         8.5210         0.0108       242.9729         4.1157         0.0188       242.9720         4.1157         4.2810         1.0000         0.0079        77.2196
      1503.2250         4.3571        -2.8980         8.5244         0.0131       233.0831         4.2904         0.0211       233.0818         4.2904         4.4119         1.0000         0.0080        77.7213
      1503.3500         4.1570        -2.4390         8.5188         0.0149       243.6115         4.1099         0.0228       243.6133         4.1099         4.1955         1.0000         0.0079        78.1999
      1503.4750         3.7564        -2.1157         8.5282         0.0162       270.0206         3.7088         0.0238       270.0230         3.7091         3.7948         1.0000         0.0076        78.5427
      1503.6000         3.4354        -2.0021         8.5319         0.0173       295.9024         3.3795         0.0244       295.9018         3.3795         3.4814         1.0000         0.0071        78.6758
      1503.7250         3.3397        -2.1223         8.5377         0.0177       304.9298         3.2794         0.0244       304.9318         3.2794         3.3895         1.0000         0.0067        78.5751
      1503.8500         3.4071        -2.3665         8.5487         0.0172       299.4408         3.3403         0.0235       299.4412         3.3403         3.4626         1.0000         0.0062        78.3504
      1503.9750         3.5797        -2.7071         8.5613         0.0163       285.9479         3.4984         0.0220       285.9471         3.4983         3.6479         1.0000         0.0058        78.0294
      1504.1000         3.7702        -3.0596         8.5580         0.0160       272.8938         3.6644         0.0211       272.8960         3.6644         3.8594         1.0000         0.0051        77.6964
      1504.2250         3.8219        -3.1604         8.5445         0.0171       270.9671         3.6908         0.0210       270.9677         3.6908         3.9336         1.0000         0.0039        77.6151
      1504.3500         3.6854        -3.0970         8.5258         0.0188       281.5583         3.5536         0.0213       281.5583         3.5536         3.7980         1.0000         0.0026        77.6981
      1504.4750         3.4247        -2.8432         8.5273         0.0193       301.0613         3.3235         0.0211       301.0637         3.3237         3.5099         1.0000         0.0017        77.9714
      1504.6000         3.1468        -2.3758         8.5617         0.0177       323.3751         3.0924         0.0195       323.3734         3.0924         3.1917         1.0000         0.0018        78.4583
      1504.7250         2.9344        -1.9304         8.5539         0.0142       342.2746         2.9223         0.0167       342.2769         2.9223         2.9443         1.0000         0.0025        78.9233
      1504.8500         2.7919        -1.5654         8.5548         0.0113       356.4912         2.8056         0.0143       356.4908         2.8056         2.7811         1.0000         0.0030        79.3078
      1504.9750         2.7012        -1.3062         8.5942         0.0096       366.6534         2.7275         0.0128       366.6581         2.7275         2.6804         1.0000         0.0032        79.5865
      1505.1000         2.6500        -1.2594         8.6733         0.0087       373.1158         2.6801         0.0118       373.1204         2.6801         2.6264         1.0000         0.0031        79.6528
      1505.2250         2.6378        -1.2920         8.7396         0.0080       374.5988         2.6695         0.0110       374.6053         2.6695         2.6129         1.0000         0.0030        79.6323
      1505.3500         2.6439        -1.3600         8.7659         0.0077       373.3212         2.6787         0.0105       373.3225         2.6787         2.6168         1.0000         0.0029        79.5463
      1505.4750         2.6519        -1.4481         8.7775         0.0075       371.5522         2.6914         0.0103       371.5509         2.6914         2.6210         1.0000         0.0028        79.4404
      1505.6000         2.6653        -1.5723         8.7886         0.0082       368.7470         2.7119         0.0110       368.7451         2.7119         2.6291         1.0000         0.0027        79.2983
