#----------------------------------------------------------------------------------
#
# APPLICATION : SAHARA 3.2.110
# DATE        : 04/07/2024 19:46:15
# PROJECT     : VH-III
#
#----------------------------------------------------------------------------------
~Version Information
VERS. 2.0 : CWLS LOG ASCII STANDARD - VERSION 2.0
WRAP.  NO : One line per depth step
~Well Information
#MNEMONIC   .UNIT                                           VALUE : DESCRIPTION
#----------------------------------------------------------------------------------
STRT        .M                                           200.0000 : START DEPTH
STOP        .M                                          1624.7500 : STOP DEPTH
STEP        .M                                           125.0000 : STEP
NULL        .                                           -999.2500 : NULL VALUE
COMP        .                                                     : COMPANY
WELL        .                                             PVH-941 : WELL NAME
FLD         .                                                     : FIELD
LOC         .                                                     : LOCATION
PROV        .                                                     : PROVINCE
SRVC        .                                                     : SERVICE COMPANY
DATE        .                                                     : DATE
UWI         .                                          5420002501 : UNIQUE WELL ID
XCOORD      .                                        2539607.2000 : SURFACE X
YCOORD      .                                        4929727.3600 : SURFACE Y
ELEV        .M                                           399.3400 : SURFACE ELEV
~Curve Information
#MNEMONIC   .UNIT                       API CODES           CURVE : DESCRIPTION
#----------------------------------------------------------------------------------
DEPTH       .M                        00 000 00 00                : CURVE # 19
DT          .US/FT                    00 000 00 00                : CURVE # 2
RHOB        .                         00 000 00 00                : CURVE # 3
BS          .                         00 000 00 00                : CURVE # 6
MBVIA       .FR.                      00 000 00 00                : CURVE # 7
CILD        .                         00 000 00 00                : CURVE # 10
HDRS        .OHM.M                    00 000 00 00                : CURVE # 11
MPHIA       .FR.                      00 000 00 00                : CURVE # 12
SPED        .MV                       00 000 00 00                : CURVE # 13
CALA        .                         00 000 00 00                : CURVE # 20
DPHI        .FR.                      00 000 00 00                : CURVE # 21
HDCN        .                         00 000 00 00                : CURVE # 22
LITHO_VHIII .                         00 000 00 00                : CURVE # 23
MFFIA       .FR.                      00 000 00 00                : CURVE # 24
PE          .                         00 000 00 00                : CURVE # 25
SPB         .MV                       00 000 00 00                : CURVE # 26
SPHI        .FR.                      00 000 00 00                : CURVE # 27
~A        DEPTH             DT           RHOB             BS          MBVIA           CILD           HDRS          MPHIA           SPED           CALA           DPHI           HDCN    LITHO_VHIII          MFFIA             PE            SPB           SPHI
# ...
      1076.0000       111.4980         2.0297         8.5000         0.0062       556.8239         1.7959         0.0163        -1.3334        10.3628         0.3759       556.8088         1.0000         0.0102         2.2888        80.0832         0.4128
      1076.1250       113.7661         1.9792         8.5000         0.0066       550.0637         1.8182         0.0166        -1.4757        10.1377         0.4066       550.0687         1.0000         0.0100         2.2745        79.9520         0.4346
      1076.2500       116.0330         1.9592         8.5000         0.0071       531.8556         1.8807         0.0169        -1.5465         9.9326         0.4187       531.8455         1.0000         0.0098         2.2731        79.8923         0.4625
      1076.3750       118.2999         1.9587         8.5000         0.0074       512.6707         1.9508         0.0172        -1.6236         9.8257         0.4190       512.6699         1.0000         0.0097         2.3008        79.8197         0.4836
      1076.5000       120.5680         1.9716         8.5000         0.0075       497.6362         2.0095         0.0172        -1.7190         9.7589         0.4112       497.6332         1.0000         0.0097         2.3772        79.7243         0.4953
      1076.6250       122.0194         2.0295         8.5000         0.0076       484.9564         2.0622         0.0174        -1.7644         9.8286         0.3761       484.9479         1.0000         0.0098         2.4135        79.6789         0.4981
      1076.7500       120.4080         2.1105         8.5000         0.0077       474.1721         2.1091         0.0178        -1.8184         9.8443         0.3269       474.1699         1.0000         0.0101         2.5304        79.6249         0.4971
      1076.8750       118.7966         2.1244         8.5000         0.0078       468.4503         2.1347         0.0182        -1.8981         9.7488         0.3186       468.4510         1.0000         0.0104         2.5383        79.5452         0.4897
      1077.0000       117.1840         2.1279         8.5000         0.0079       471.4312         2.1212         0.0185        -1.8206         9.6107         0.3164       471.4408         1.0000         0.0106         2.4779        79.6227         0.4801
      1077.1250       115.5721         2.1401         8.5000         0.0079       476.5706         2.0983         0.0185        -1.7732         9.6606         0.3090       476.5617         1.0000         0.0106         2.4848        79.6701         0.4747
      1077.2500       113.9605         2.1456         8.5000         0.0079       469.5068         2.1303         0.0184        -1.4800         9.8502         0.3057       469.5058         1.0000         0.0105         2.4859        79.9633         0.4654
      1077.3750       112.3496         2.1532         8.5000         0.0078       444.1515         2.2528         0.0179        -1.2123        10.0567         0.3011       444.1511         1.0000         0.0101         2.4610        80.2310         0.4511
      1077.5000       110.7370         2.1821         8.5000         0.0076       404.4489         2.4725         0.0172        -1.1162        10.2260         0.2836       404.4515         1.0000         0.0096         2.4620        80.3271         0.4341
      1077.6250       109.1251         2.2042         8.5000         0.0075       361.6148         2.7699         0.0167        -1.0459        10.3585         0.2702       361.6208         1.0000         0.0092         2.4429        80.3974         0.4168
      1077.7500       109.0475         2.2326         8.5000         0.0074       321.2629         3.1201         0.0166        -0.9641        10.4112         0.2530       321.2634         1.0000         0.0091         2.4549        80.4792         0.4015
      1077.8750       111.2715         2.2314         8.5000         0.0072       285.0073         3.5145         0.0162        -1.0152        10.4768         0.2538       285.0037         1.0000         0.0090         2.4902        80.4281         0.3964
      1078.0000       113.4960         2.1854         8.5000         0.0065       258.3512         3.8707         0.0153        -1.1892        10.6704         0.2816       258.3534         1.0000         0.0088         2.4233        80.2541         0.4076
      1078.1250       115.1851         2.1264         8.5000         0.0054       245.6466         4.0712         0.0137        -1.3704        10.8001         0.3174       245.6449         1.0000         0.0084         2.3470        80.0729         0.4265
      1078.2500       114.3765         2.0832         8.5000         0.0045       240.7381         4.1540         0.0125        -1.5830        10.9497         0.3435       240.7399         1.0000         0.0080         2.3277        79.8603         0.4379
      1078.3750       113.4479         2.0647         8.5000         0.0040       237.9599         4.2025         0.0119        -1.6199        11.1377         0.3547       237.9624         1.0000         0.0079         2.3514        79.8234         0.4434
      1078.5000       112.7990         2.0753         8.5000         0.0040       233.5030         4.2826         0.0119        -1.3938        11.1205         0.3483       233.5008         1.0000         0.0079         2.3927        80.0495         0.4437
      1078.6250       112.0492         2.0984         8.5000         0.0039       226.9612         4.4065         0.0120        -1.2634        11.0692         0.3343       226.9619         1.0000         0.0080         2.4199        80.1799         0.4350
      1078.7500       111.0415         2.1339         8.5000         0.0038       220.9129         4.5271         0.0121        -1.2588        10.9182         0.3128       220.9115         1.0000         0.0082         2.4278        80.1845         0.4244
      1078.8750       112.4718         2.1625         8.5000         0.0038       218.6292         4.5740         0.0121        -1.3913        10.7415         0.2954       218.6287         1.0000         0.0084         2.4442        80.0520         0.4242
      1079.0000       115.3910         2.1673         8.5000         0.0037       224.3863         4.4566         0.0122        -1.4783        10.5679         0.2925       224.3842         1.0000         0.0084         2.4429        79.9650         0.4346
      1079.1250       118.3102         2.1727         8.5000         0.0037       240.1464         4.1669         0.0122        -1.6795        10.2459         0.2893       240.1474         1.0000         0.0084         2.4224        79.7638         0.4548
      1079.2500       121.2275         2.1804         8.5000         0.0038       256.6552         3.8981         0.0122        -1.7748        10.0693         0.2846       256.6547         1.0000         0.0084         2.4033        79.6685         0.4711
      1079.3750       122.3650         2.1899         8.5000         0.0038       265.9508         3.7603         0.0122        -1.8875         9.9825         0.2789       265.9520         1.0000         0.0084         2.4030        79.5558         0.4855
      1079.5000       118.1860         2.2083         8.5000         0.0039       266.1344         3.7575         0.0122        -2.0315         9.9925         0.2677       266.1358         1.0000         0.0084         2.4687        79.4118         0.4966
      1079.6250       112.9725         2.2166         8.5000         0.0040       258.8634         3.8638         0.0124        -2.0355        10.1748         0.2626       258.8645         1.0000         0.0084         2.4774        79.4078         0.4923
      1079.7500       109.8270         2.2310         8.5000         0.0042       247.6837         4.0390         0.0125        -2.0080        10.3913         0.2539       247.6837         1.0000         0.0083         2.4930        79.4353         0.4733
      1079.8750       109.5678         2.2548         8.5000         0.0041       235.9647         4.2390         0.0119        -1.9977        10.4625         0.2395       235.9663         1.0000         0.0078         2.5314        79.4456         0.4542
