#----------------------------------------------------------------------------------
#
# APPLICATION : SAHARA 3.2.110
# DATE        : 04/07/2024 19:46:17
# PROJECT     : VH-III
#
#----------------------------------------------------------------------------------
~Version Information
VERS. 2.0 : CWLS LOG ASCII STANDARD - VERSION 2.0
WRAP.  NO : One line per depth step
~Well Information
#MNEMONIC   .UNIT                                           VALUE : DESCRIPTION
#----------------------------------------------------------------------------------
STRT        .M                                           313.4750 : START DEPTH
STOP        .M                                          1692.9750 : STOP DEPTH
STEP        .M                                           125.0000 : STEP
NULL        .                                           -999.2500 : NULL VALUE
COMP        .                                                     : COMPANY
WELL        .                                            PVH-1007 : WELL NAME
FLD         .                                                     : FIELD
LOC         .                                                     : LOCATION
PROV        .                                                     : PROVINCE
SRVC        .                                                     : SERVICE COMPANY
DATE        .                                                     : DATE
UWI         .                                          5420000089 : UNIQUE WELL ID
XCOORD      .                                        2539987.0400 : SURFACE X
YCOORD      .                                        4929711.0400 : SURFACE Y
ELEV        .M                                           417.7500 : SURFACE ELEV
~Curve Information
#MNEMONIC   .UNIT                       API CODES           CURVE : DESCRIPTION
#----------------------------------------------------------------------------------
DEPTH       .M                        00 000 00 00                : CURVE # 19
HMRS        .OHM.M                    00 000 00 00                : CURVE # 2
SPED        .MV                       00 000 00 00                : CURVE # 4
CALA        .                         00 000 00 00                : CURVE # 5
MBVIA       .FR.                      00 000 00 00                : CURVE # 6
HDCN        .                         00 000 00 00                : CURVE # 11
HT90        .OHM.M                    00 000 00 00                : CURVE # 12
MPHIA       .FR.                      00 000 00 00                : CURVE # 13
CILD        .                         00 000 00 00                : CURVE # 20
HDRS        .OHM.M                    00 000 00 00                : CURVE # 21
HT24        .OHM.M                    00 000 00 00                : CURVE # 22
LITHO_VHIII .                         00 000 00 00                : CURVE # 23
MFFIA       .FR.                      00 000 00 00                : CURVE # 24
SPB         .MV                       00 000 00 00                : CURVE # 25
~A        DEPTH           HMRS           SPED           CALA          MBVIA           HDCN           HT90          MPHIA           CILD           HDRS           HT24    LITHO_VHIII          MFFIA            SPB
# ...
       954.7250         1.7079        -1.7977         9.4664      -999.2500       589.9014         1.6954      -999.2500       589.9027         1.6954         1.7181         1.0000      -999.2500        79.1301
       954.8500         1.6724        -1.6081         9.5922      -999.2500       607.3796         1.6466      -999.2500       607.3903         1.6466         1.6937         1.0000      -999.2500        79.3197
       954.9750         1.6427        -1.4125         9.7785      -999.2500       621.2360         1.6097      -999.2500       621.2532         1.6097         1.6700         1.0000      -999.2500        79.5153
       955.1000         1.6236        -1.2275         9.9234      -999.2500       628.1674         1.5919      -999.2500       628.1802         1.5919         1.6499         1.0000      -999.2500        79.7003
       955.2250         1.6240        -1.1327         9.9073      -999.2500       625.9203         1.5977      -999.2500       625.9113         1.5977         1.6456         1.0000      -999.2500        79.7951
       955.3500         1.6458        -1.1300         9.7771      -999.2500       614.3639         1.6279      -999.2500       614.3677         1.6279         1.6605         1.0000      -999.2500        79.7979
       955.4750         1.6934        -1.1814         9.6866      -999.2500       597.2167         1.6746      -999.2500       597.2292         1.6746         1.7087         1.0000      -999.2500        79.7464
       955.6000         1.7625        -1.2541         9.4295      -999.2500       579.2613         1.7263      -999.2500       579.2736         1.7263         1.7925         1.0000      -999.2500        79.6737
       955.7250         1.8260        -1.3329         9.2032      -999.2500       563.5518         1.7746      -999.2500       563.5397         1.7746         1.8694         1.0000      -999.2500        79.5949
       955.8500         1.8503        -1.4351         8.9446      -999.2500       558.2108         1.7914      -999.2500       558.2078         1.7914         1.9002         1.0000      -999.2500        79.4908
       955.9750         1.8359        -1.5522         8.9714      -999.2500       561.5464         1.7808      -999.2500       561.5429         1.7808         1.8825         1.0000      -999.2500        79.3686
       956.1000         1.8125        -1.6747         9.1939      -999.2500       560.0190         1.7857      -999.2500       560.0045         1.7857         1.8346         1.0000      -999.2500        79.2411
       956.2250         1.8147        -1.7577         9.5317      -999.2500       547.4610         1.8267      -999.2500       547.4686         1.8267         1.8053         1.0000      -999.2500        79.1530
       956.3500         1.8418        -1.8355         9.6193      -999.2500       534.5140         1.8710      -999.2500       534.5198         1.8710         1.8190         1.0000      -999.2500        79.0702
       956.4750         1.8752        -1.8892         9.5799      -999.2500       526.3979         1.8997      -999.2500       526.4005         1.8997         1.8561         1.0000      -999.2500        79.0115
       956.6000         1.8956        -1.9001         9.3268      -999.2500       524.5393         1.9064      -999.2500       524.5489         1.9064         1.8870         1.0000      -999.2500        78.9955
       956.7250         1.8954        -1.8497         9.1750      -999.2500       530.9868         1.8834      -999.2500       530.9863         1.8834         1.9053         1.0000      -999.2500        79.0409
       956.8500         1.8903        -1.7765         9.0133      -999.2500       539.9455         1.8521      -999.2500       539.9479         1.8521         1.9221         1.0000      -999.2500        79.1090
       956.9750         1.8936        -1.6774         8.9565      -999.2500       545.0200         1.8348      -999.2500       545.0286         1.8348         1.9433         1.0000      -999.2500        79.2031
       957.1000         1.9093        -1.5355         9.0577      -999.2500       545.5594         1.8330      -999.2500       545.5538         1.8330         1.9751         1.0000      -999.2500        79.3400
       957.2250         1.9247        -1.3975         9.1615      -999.2500       545.1039         1.8345      -999.2500       545.1001         1.8345         2.0035         1.0000      -999.2500        79.4729
       957.3500         1.9226        -1.3224         9.1651      -999.2500       545.1816         1.8342      -999.2500       545.1823         1.8342         1.9998         1.0000      -999.2500        79.5430
       957.4750         1.9062        -1.3213         9.1108      -999.2500       545.7059         1.8325      -999.2500       545.7101         1.8325         1.9696         1.0000      -999.2500        79.5391
       957.6000         1.8941        -1.3629         9.1077      -999.2500       545.5691         1.8329      -999.2500       545.5835         1.8329         1.9461         1.0000      -999.2500        79.4924
       957.7250         1.9051        -1.4287         9.1259      -999.2500       542.2643         1.8442      -999.2500       542.2513         1.8442         1.9567         1.0000      -999.2500        79.4216
       957.8500         1.9238        -1.4730         9.0408      -999.2500       538.5104         1.8570      -999.2500       538.5038         1.8570         1.9807         1.0000      -999.2500        79.3723
       957.9750         1.9195        -1.4994         8.9031      -999.2500       542.0584         1.8448      -999.2500       542.0625         1.8448         1.9837         1.0000      -999.2500        79.3408
       958.1000         1.8586        -1.4523         8.8039      -999.2500       559.5941         1.7870      -999.2500       559.5971         1.7870         1.9201         1.0000      -999.2500        79.3829
       958.2250         1.7315        -1.3384         8.8709      -999.2500       593.2870         1.6864      -999.2500       593.2856         1.6864         1.7695         1.0000      -999.2500        79.4917
       958.3500         1.5992        -1.2419         9.0141      -999.2500       633.3558         1.5799      -999.2500       633.3606         1.5799         1.6150         1.0000      -999.2500        79.5833
       958.4750         1.5087        -1.1534         9.2960      -999.2500       668.5846         1.4961      -999.2500       668.5907         1.4961         1.5189         1.0000      -999.2500        79.6667
       958.6000         1.4752        -1.0849         9.4539      -999.2500       686.6953         1.4562      -999.2500       686.7189         1.4562         1.4907         1.0000      -999.2500        79.7302
       958.7250         1.4813        -1.0704         9.4585      -999.2500       687.0519         1.4555      -999.2500       687.0372         1.4555         1.5024         1.0000      -999.2500        79.7396
       958.8500         1.4810        -1.1349         9.1555      -999.2500       688.6821         1.4520      -999.2500       688.6924         1.4520         1.5049         1.0000      -999.2500        79.6702
       958.9750         1.4529        -1.2153         8.9201      -999.2500       701.3010         1.4260      -999.2500       701.3131         1.4260         1.4751         1.0000      -999.2500        79.5847
       959.1000         1.4039        -1.2409         8.8975      -999.2500       723.4324         1.3823      -999.2500       723.4319         1.3823         1.4216         1.0000      -999.2500        79.5540
       959.2250         1.3575        -1.1999         9.1982      -999.2500       747.0873         1.3386      -999.2500       747.1011         1.3386         1.3729         1.0000      -999.2500        79.5900
       959.3500         1.3233        -1.1401         9.5031      -999.2500       767.2044         1.3035      -999.2500       767.2103         1.3035         1.3396         1.0000      -999.2500        79.6448
