#----------------------------------------------------------------------------------
#
# APPLICATION : SAHARA 3.2.110
# DATE        : 04/07/2024 19:46:17
# PROJECT     : VH-III
#
#----------------------------------------------------------------------------------
~Version Information
VERS. 2.0 : CWLS LOG ASCII STANDARD - VERSION 2.0
WRAP.  NO : One line per depth step
~Well Information
#MNEMONIC   .UNIT                                           VALUE : DESCRIPTION
#----------------------------------------------------------------------------------
STRT        .M                                           313.4750 : START DEPTH
STOP        .M                                          1692.9750 : STOP DEPTH
STEP        .M                                           125.0000 : STEP
NULL        .                                           -999.2500 : NULL VALUE
COMP        .                                                     : COMPANY
WELL        .                                            PVH-1007 : WELL NAME
FLD         .                                                     : FIELD
LOC         .                                                     : LOCATION
PROV        .                                                     : PROVINCE
SRVC        .                                                     : SERVICE COMPANY
DATE        .                                                     : DATE
UWI         .                                          5420000089 : UNIQUE WELL ID
XCOORD      .                                        2539987.0400 : SURFACE X
YCOORD      .                                        4929711.0400 : SURFACE Y
ELEV        .M                                           417.7500 : SURFACE ELEV
~Curve Information
#MNEMONIC   .UNIT                       API CODES           CURVE : DESCRIPTION
#----------------------------------------------------------------------------------
DEPTH       .M                        00 000 00 00                : CURVE # 19
HMRS        .OHM.M                    00 000 00 00                : CURVE # 2
SPED        .MV                       00 000 00 00                : CURVE # 4
CALA        .                         00 000 00 00                : CURVE # 5
MBVIA       .FR.                      00 000 00 00                : CURVE # 6
HDCN        .                         00 000 00 00                : CURVE # 11
HT90        .OHM.M                    00 000 00 00                : CURVE # 12
MPHIA       .FR.                      00 000 00 00                : CURVE # 13
CILD        .                         00 000 00 00                : CURVE # 20
HDRS        .OHM.M                    00 000 00 00                : CURVE # 21
HT24        .OHM.M                    00 000 00 00                : CURVE # 22
LITHO_VHIII .                         00 000 00 00                : CURVE # 23
MFFIA       .FR.                      00 000 00 00                : CURVE # 24
SPB         .MV                       00 000 00 00                : CURVE # 25
~A        DEPTH           HMRS           SPED           CALA          MBVIA           HDCN           HT90          MPHIA           CILD           HDRS           HT24    LITHO_VHIII          MFFIA            SPB
       313.4750      -999.2500      -999.2500         8.9063      -999.2500      -999.2500      -999.2500      -999.2500      -999.2500      -999.2500      -999.2500      -999.2500      -999.2500      -988.7783
       313.6000     20000.0000         0.8335         8.9060      -999.2500         5.1562       193.9430      -999.2500         5.1562       193.9430     20000.0000      -999.2500      -999.2500        99.2871
       313.7250     20000.0000         0.7567         8.9060      -999.2500         5.1716       193.3665      -999.2500         5.1716       193.3665     20000.0000      -999.2500      -999.2500        99.2103
       313.8500     20000.0000         0.7307         8.9044      -999.2500         5.2470       190.5979      -999.2500         5.2469       190.5979     20000.0000      -999.2500      -999.2500        99.1843
       313.9750     20000.0000         0.7066         8.9037      -999.2500         5.3413       187.2279      -999.2500         5.3413       187.2279     20000.0000      -999.2500      -999.2500        99.1602
       314.1000     20000.0000         0.6145         8.9027      -999.2500         5.3824       185.7899      -999.2500         5.3824       185.7899     20000.0000      -999.2500      -999.2500        99.0681
       314.2250     20000.0000         0.5037         8.9036      -999.2500         5.3104       188.3246      -999.2500         5.3104       188.3246     20000.0000      -999.2500      -999.2500        98.9573
       314.3500     20000.0000         0.4596         8.9040      -999.2500         5.1730       193.3394      -999.2500         5.1730       193.3394     20000.0000      -999.2500      -999.2500        98.9132
       314.4750     20000.0000         0.4335         8.9062      -999.2500         5.0336       198.6817      -999.2500         5.0336       198.6817     20000.0000      -999.2500      -999.2500        98.8871
       314.6000     20000.0000         0.3448         8.9063      -999.2500         4.9388       202.4791      -999.2500         4.9388       202.4791     20000.0000      -999.2500      -999.2500        98.7984
       314.7250     20000.0000         0.1912         8.9089      -999.2500         4.8956       204.2637      -999.2500         4.8957       204.2637     20000.0000      -999.2500      -999.2500        98.6448
       314.8500     20000.0000         0.0457         8.9086      -999.2500         4.8616       205.6983      -999.2500         4.8615       205.6983     20000.0000      -999.2500      -999.2500        98.4992
       314.9750     20000.0000        -0.0578         8.9092      -999.2500         4.8215       207.4066      -999.2500         4.8215       207.4066     20000.0000      -999.2500      -999.2500        98.3958
       315.1000     20000.0000        -0.1146         8.9084      -999.2500         4.7996       208.3508      -999.2500         4.7996       208.3508     20000.0000      -999.2500      -999.2500        98.3390
       315.2250     20000.0000        -0.1179         8.9097      -999.2500         4.8478       206.2895      -999.2500         4.8478       206.2895     20000.0000      -999.2500      -999.2500        98.3357
       315.3500     20000.0000        -0.0852         8.9090      -999.2500         4.9587       201.6917      -999.2500         4.9586       201.6917     20000.0000      -999.2500      -999.2500        98.3684
       315.4750     20000.0000        -0.0345         8.9082      -999.2500         5.0925       196.3853      -999.2500         5.0925       196.3853     20000.0000      -999.2500      -999.2500        98.4191
       315.6000     20000.0000         0.0136         8.9074      -999.2500         5.2022       192.2256      -999.2500         5.2022       192.2256     20000.0000      -999.2500      -999.2500        98.4672
       315.7250     20000.0000         0.0483         8.9080      -999.2500         5.2546       190.3091      -999.2500         5.2546       190.3091     20000.0000      -999.2500      -999.2500        98.5020
       315.8500     20000.0000         0.0483         8.9081      -999.2500         5.2726       189.6583      -999.2500         5.2726       189.6583     20000.0000      -999.2500      -999.2500        98.5019
       315.9750     20000.0000         0.0023         8.9077      -999.2500         5.2905       189.0172      -999.2500         5.2905       189.0172     20000.0000      -999.2500      -999.2500        98.4559
       316.1000     20000.0000        -0.0532         8.9068      -999.2500         5.3312       187.5739      -999.2500         5.3312       187.5739     20000.0000      -999.2500      -999.2500        98.4004
       316.2250     20000.0000        -0.0919         8.9069      -999.2500         5.3755       186.0315      -999.2500         5.3754       186.0315     20000.0000      -999.2500      -999.2500        98.3617
       316.3500     20000.0000        -0.1240         8.9058      -999.2500         5.3756       186.0264      -999.2500         5.3756       186.0264     20000.0000      -999.2500      -999.2500        98.3296
       316.4750     20000.0000        -0.1520         8.9057      -999.2500         5.3117       188.2668      -999.2500         5.3118       188.2668     20000.0000      -999.2500      -999.2500        98.3016
       316.6000     20000.0000        -0.1573         8.9054      -999.2500         5.2001       192.3045      -999.2500         5.2001       192.3045     20000.0000      -999.2500      -999.2500        98.2963
       316.7250     20000.0000        -0.0599         8.9076      -999.2500         5.0816       196.7976      -999.2500         5.0816       196.7976     20000.0000      -999.2500      -999.2500        98.3938
       316.8500     20000.0000         0.0978         8.9076      -999.2500         5.0063       199.7516      -999.2500         5.0063       199.7516     20000.0000      -999.2500      -999.2500        98.5514
       316.9750     20000.0000         0.2874         8.9078      -999.2500         5.0210       199.1654      -999.2500         5.0210       199.1654     20000.0000      -999.2500      -999.2500        98.7410
       317.1000     20000.0000         0.4703         8.9077      -999.2500         5.1570       193.9126      -999.2500         5.1570       193.9126     20000.0000      -999.2500      -999.2500        98.9239
       317.2250     20000.0000         0.6185         8.9089      -999.2500         5.3950       185.4012      -999.2500         5.3950       185.4012     20000.0000      -999.2500      -999.2500        99.0721
       317.3500     20000.0000         0.7640         8.9086      -999.2500         5.6120       178.2173      -999.2500         5.6120       178.2173     20000.0000      -999.2500      -999.2500        99.2176
       317.4750     20000.0000         0.8555         8.9081      -999.2500         5.7097       175.1411      -999.2500         5.7097       175.1411     20000.0000      -999.2500      -999.2500        99.3091
       317.6000     20000.0000         0.8842         8.9069      -999.2500         5.6574       176.7590      -999.2500         5.6574       176.7590     20000.0000      -999.2500      -999.2500        99.3378
       317.7250     20000.0000         0.8716         8.9058      -999.2500         5.4979       181.9103      -999.2500         5.4979       181.9103     20000.0000      -999.2500      -999.2500        99.3251
       317.8500     20000.0000         0.8201         8.9046      -999.2500         5.3336       187.5144      -999.2500         5.3336       187.5144     20000.0000      -999.2500      -999.2500        99.2737
       317.9750     20000.0000         0.7467         8.9049      -999.2500         5.2171       191.6825      -999.2500         5.2172       191.6825     20000.0000      -999.2500      -999.2500        99.2003
       318.1000     20000.0000         0.6706         8.9053      -999.2500         5.1718       193.3577      -999.2500         5.1718       193.3577     20000.0000      -999.2500      -999.2500        99.1242
