#----------------------------------------------------------------------------------
#
# APPLICATION : SAHARA 3.2.110
# DATE        : 04/07/2024 19:46:17
# PROJECT     : VH-III
#
#----------------------------------------------------------------------------------
~Version Information
VERS. 2.0 : CWLS LOG ASCII STANDARD - VERSION 2.0
WRAP.  NO : One line per depth step
~Well Information
#MNEMONIC   .UNIT                                           VALUE : DESCRIPTION
#----------------------------------------------------------------------------------
STRT        .M                                           313.4750 : START DEPTH
STOP        .M                                          1692.9750 : STOP DEPTH
STEP        .M                                           125.0000 : STEP
NULL        .                                           -999.2500 : NULL VALUE
COMP        .                                                     : COMPANY
WELL        .                                            PVH-1007 : WELL NAME
FLD         .                                                     : FIELD
LOC         .                                                     : LOCATION
PROV        .                                                     : PROVINCE
SRVC        .                                                     : SERVICE COMPANY
DATE        .                                                     : DATE
UWI         .                                          5420000089 : UNIQUE WELL ID
XCOORD      .                                        2539987.0400 : SURFACE X
YCOORD      .                                        4929711.0400 : SURFACE Y
ELEV        .M                                           417.7500 : SURFACE ELEV
~Curve Information
#MNEMONIC   .UNIT                       API CODES           CURVE : DESCRIPTION
#----------------------------------------------------------------------------------
DEPTH       .M                        00 000 00 00                : CURVE # 19
HMRS        .OHM.M                    00 000 00 00                : CURVE # 2
SPED        .MV                       00 000 00 00                : CURVE # 4
CALA        .                         00 000 00 00                : CURVE # 5
MBVIA       .FR.                      00 000 00 00                : CURVE # 6
HDCN        .                         00 000 00 00                : CURVE # 11
HT90        .OHM.M                    00 000 00 00                : CURVE # 12
MPHIA       .FR.                      00 000 00 00                : CURVE # 13
CILD        .                         00 000 00 00                : CURVE # 20
HDRS        .OHM.M                    00 000 00 00                : CURVE # 21
HT24        .OHM.M                    00 000 00 00                : CURVE # 22
LITHO_VHIII .                         00 000 00 00                : CURVE # 23
MFFIA       .FR.                      00 000 00 00                : CURVE # 24
SPB         .MV                       00 000 00 00                : CURVE # 25
~A        DEPTH           HMRS           SPED           CALA          MBVIA           HDCN           HT90          MPHIA           CILD           HDRS           HT24    LITHO_VHIII          MFFIA            SPB
# ...
       403.7250         2.9356        -5.7807         8.8337      -999.2500       331.2625         3.0191      -999.2500       331.2648         3.0191         2.8722      -999.2500      -999.2500        72.3042
       403.8500         3.0019        -6.5164         8.6990      -999.2500       326.3517         3.0642      -999.2500       326.3539         3.0642         2.9540      -999.2500      -999.2500        71.5942
       403.9750         2.9392        -7.2741         8.5945      -999.2500       334.2993         2.9917      -999.2500       334.3026         2.9917         2.8986      -999.2500      -999.2500        70.8621
       404.1000         2.8367        -8.1172         8.5776      -999.2500       345.3877         2.8953      -999.2500       345.3874         2.8953         2.7914      -999.2500      -999.2500        70.0445
       404.2250         2.8107        -8.4688         8.6090      -999.2500       347.1708         2.8805      -999.2500       347.1666         2.8805         2.7572      -999.2500      -999.2500        69.7184
       404.3500         2.8674        -8.3545         8.6099      -999.2500       339.6999         2.9442      -999.2500       339.7001         2.9442         2.8089      -999.2500      -999.2500        69.8582
       404.4750         2.9370        -8.0238         8.5617      -999.2500       331.0565         3.0208      -999.2500       331.0552         3.0208         2.8733      -999.2500      -999.2500        70.2144
       404.6000         2.9383        -7.9510         8.5085      -999.2500       329.7303         3.0328      -999.2500       329.7283         3.0328         2.8669      -999.2500      -999.2500        70.3128
       404.7250         2.8867        -8.7660         8.4992      -999.2500       334.5628         2.9890      -999.2500       334.5649         2.9890         2.8098      -999.2500      -999.2500        69.5231
       404.8500         2.8994        -9.6158         8.5510      -999.2500       332.8524         3.0046      -999.2500       332.8516         3.0046         2.8204      -999.2500      -999.2500        68.6990
       404.9750         3.0246       -10.2733         8.5868      -999.2500       319.4368         3.1315      -999.2500       319.4400         3.1315         2.9441      -999.2500      -999.2500        68.0670
       405.1000         3.2098       -10.7945         8.5980      -999.2500       301.6548         3.3150      -999.2500       301.6591         3.3150         3.1303      -999.2500      -999.2500        67.5713
       405.2250         3.3073       -11.3618         8.5675      -999.2500       293.8486         3.4031      -999.2500       293.8500         3.4031         3.2344      -999.2500      -999.2500        67.0294
       405.3500         3.2767       -11.8904         8.5601      -999.2500       297.4728         3.3620      -999.2500       297.4720         3.3620         3.2115      -999.2500      -999.2500        66.5264
       405.4750         3.1854       -11.8182         8.5811      -999.2500       306.0976         3.2673      -999.2500       306.0966         3.2673         3.1229      -999.2500      -999.2500        66.6242
       405.6000         3.1102       -11.0903         8.6223      -999.2500       312.7708         3.1972      -999.2500       312.7737         3.1972         3.0440      -999.2500      -999.2500        67.3776
       405.7250         3.0811        -9.9025         8.6851      -999.2500       314.1414         3.1833      -999.2500       314.1371         3.1833         3.0040      -999.2500      -999.2500        68.5912
       405.8500         3.0707        -8.6196         8.7593      -999.2500       313.2142         3.1928      -999.2500       313.2102         3.1928         2.9796      -999.2500      -999.2500        69.8994
       405.9750         3.0581        -7.4491         8.8331      -999.2500       312.6386         3.1986      -999.2500       312.6392         3.1986         2.9544      -999.2500      -999.2500        71.0954
       406.1000         3.0398        -6.4696         8.8845      -999.2500       313.2390         3.1925      -999.2500       313.2341         3.1925         2.9278      -999.2500      -999.2500        72.1004
       406.2250         3.0207        -5.6923         8.9663      -999.2500       314.1649         3.1830      -999.2500       314.1669         3.1830         2.9021      -999.2500      -999.2500        72.9034
       406.3500         2.9948        -5.0992         9.0182      -999.2500       315.5068         3.1695      -999.2500       315.5042         3.1695         2.8684      -999.2500      -999.2500        73.5219
       406.4750         2.9574        -4.7264         9.0673      -999.2500       318.2995         3.1417      -999.2500       318.2986         3.1417         2.8249      -999.2500      -999.2500        73.9201
       406.6000         2.9171        -4.6448         9.0934      -999.2500       322.4688         3.1011      -999.2500       322.4662         3.1011         2.7849      -999.2500      -999.2500        74.0272
       406.7250         2.8887        -4.7402         9.1482      -999.2500       326.2357         3.0653      -999.2500       326.2382         3.0653         2.7615      -999.2500      -999.2500        73.9574
       406.8500         2.8702        -4.8595         9.2059      -999.2500       328.8486         3.0409      -999.2500       328.8470         3.0409         2.7469      -999.2500      -999.2500        73.8635
       406.9750         2.8555        -5.0910         9.2455      -999.2500       330.6206         3.0246      -999.2500       330.6177         3.0246         2.7333      -999.2500      -999.2500        73.6576
       407.1000         2.8468        -5.4000         9.2925      -999.2500       331.7022         3.0148      -999.2500       331.6970         3.0148         2.7254      -999.2500      -999.2500        73.3741
       407.2250         2.8516        -5.6736         9.3628      -999.2500       331.5018         3.0166      -999.2500       331.4993         3.0166         2.7320      -999.2500      -999.2500        73.1260
       407.3500         2.8593        -5.8029         9.3946      -999.2500       330.9490         3.0216      -999.2500       330.9505         3.0216         2.7414      -999.2500      -999.2500        73.0222
       407.4750         2.8462        -5.7240         9.4300      -999.2500       332.3728         3.0087      -999.2500       332.3746         3.0087         2.7284      -999.2500      -999.2500        73.1267
       407.6000         2.7898        -5.5329         9.4542      -999.2500       338.9512         2.9503      -999.2500       338.9486         2.9503         2.6734      -999.2500      -999.2500        73.3433
       407.7250         2.6526        -5.2811         9.5525      -999.2500       356.6099         2.8061      -999.2500       356.6065         2.8061         2.5414      -999.2500      -999.2500        73.6207
       407.8500         2.4190        -4.7541         9.5556      -999.2500       390.6962         2.5648      -999.2500       390.6944         2.5648         2.3137      -999.2500      -999.2500        74.1732
       407.9750         2.1130        -4.0048         9.4939      -999.2500       445.6975         2.2492      -999.2500       445.6983         2.2492         2.0154      -999.2500      -999.2500        74.9479
       408.1000         1.8218        -3.1689         9.4592      -999.2500       516.0097         1.9379      -999.2500       516.0225         1.9379         1.7384      -999.2500      -999.2500        75.8094
       408.2250         1.6370        -2.3715         9.6828      -999.2500       581.6654         1.7206      -999.2500       581.6565         1.7206         1.5759      -999.2500      -999.2500        76.6324
       408.3500         1.5500        -1.7384         9.8383      -999.2500       618.9406         1.6160      -999.2500       618.9271         1.6160         1.5010      -999.2500      -999.2500        77.2910
