#----------------------------------------------------------------------------------
#
# APPLICATION : SAHARA 3.2.110
# DATE        : 04/07/2024 19:46:17
# PROJECT     : VH-III
#
#----------------------------------------------------------------------------------
~Version Information
VERS. 2.0 : CWLS LOG ASCII STANDARD - VERSION 2.0
WRAP.  NO : One line per depth step
~Well Information
#MNEMONIC   .UNIT                                           VALUE : DESCRIPTION
#----------------------------------------------------------------------------------
STRT        .M                                           313.4750 : START DEPTH
STOP        .M                                          1692.9750 : STOP DEPTH
STEP        .M                                           125.0000 : STEP
NULL        .                                           -999.2500 : NULL VALUE
COMP        .                                                     : COMPANY
WELL        .                                            PVH-1007 : WELL NAME
FLD         .                                                     : FIELD
LOC         .                                                     : LOCATION
PROV        .                                                     : PROVINCE
SRVC        .                                                     : SERVICE COMPANY
DATE        .                                                     : DATE
UWI         .                                          5420000089 : UNIQUE WELL ID
XCOORD      .                                        2539987.0400 : SURFACE X
YCOORD      .                                        4929711.0400 : SURFACE Y
ELEV        .M                                           417.7500 : SURFACE ELEV
~Curve Information
#MNEMONIC   .UNIT                       API CODES           CURVE : DESCRIPTION
#----------------------------------------------------------------------------------
DEPTH       .M                        00 000 00 00                : CURVE # 19
HMRS        .OHM.M                    00 000 00 00                : CURVE # 2
SPED        .MV                       00 000 00 00                : CURVE # 4
CALA        .                         00 000 00 00                : CURVE # 5
MBVIA       .FR.                      00 000 00 00                : CURVE # 6
HDCN        .                         00 000 00 00                : CURVE # 11
HT90        .OHM.M                    00 000 00 00                : CURVE # 12
MPHIA       .FR.                      00 000 00 00                : CURVE # 13
CILD        .                         00 000 00 00                : CURVE # 20
HDRS        .OHM.M                    00 000 00 00                : CURVE # 21
HT24        .OHM.M                    00 000 00 00                : CURVE # 22
LITHO_VHIII .                         00 000 00 00                : CURVE # 23
MFFIA       .FR.                      00 000 00 00                : CURVE # 24
SPB         .MV                       00 000 00 00                : CURVE # 25
~A        DEPTH           HMRS           SPED           CALA          MBVIA           HDCN           HT90          MPHIA           CILD           HDRS           HT24    LITHO_VHIII          MFFIA            SPB
# ...
      1135.2250         1.8130        -0.9071         9.2422         0.0093       562.6426         1.7773         0.0266       562.6511         1.7773         1.8426         1.0000         0.0173        80.5362
      1135.3500         1.8093        -0.9465         9.4199         0.0099       562.4326         1.7780         0.0281       562.4297         1.7780         1.8351         1.0000         0.0182        80.4968
      1135.4750         1.8097        -0.9619         9.4842         0.0106       562.2863         1.7785         0.0293       562.2795         1.7785         1.8356         1.0000         0.0188        80.4814
      1135.6000         1.8166        -0.9706         9.4530         0.0114       561.2357         1.7818         0.0303       561.2302         1.7818         1.8454         1.0000         0.0189        80.4727
      1135.7250         1.8272        -0.9673         9.3856         0.0122       558.8298         1.7895         0.0308       558.8229         1.7895         1.8585         1.0000         0.0187        80.4760
      1135.8500         1.8313        -0.9533         9.3222         0.0126       558.3066         1.7911         0.0307       558.3015         1.7911         1.8648         1.0000         0.0181        80.4900
      1135.9750         1.8212        -0.9172         9.2129         0.0127       562.1483         1.7789         0.0299       562.1595         1.7789         1.8565         1.0000         0.0172        80.5261
      1136.1000         1.7978        -0.8665         9.0545         0.0128       570.1028         1.7541         0.0289       570.0930         1.7541         1.8343         1.0000         0.0161        80.5768
      1136.2250         1.7764        -0.8378         9.1505         0.0127       578.6486         1.7282         0.0280       578.6543         1.7282         1.8170         1.0000         0.0154        80.6055
      1136.3500         1.7742        -0.8078         9.2810         0.0123       580.7161         1.7220         0.0273       580.7222         1.7220         1.8182         1.0000         0.0150        80.6355
      1136.4750         1.7945        -0.7797         9.3466         0.0120       572.9004         1.7456         0.0270       572.8937         1.7456         1.8356         1.0000         0.0150        80.6636
      1136.6000         1.8259        -0.7811         9.1745         0.0121       560.7710         1.7833         0.0277       560.7581         1.7833         1.8616         1.0000         0.0156        80.6622
      1136.7250         1.8471        -0.7791         9.0770         0.0127       554.2573         1.8042         0.0296       554.2621         1.8042         1.8828         1.0000         0.0169        80.6642
      1136.8500         1.8491        -0.7998         9.0156         0.0134       554.6465         1.8030         0.0318       554.6355         1.8030         1.8879         1.0000         0.0184        80.6435
      1136.9750         1.8390        -0.8246         9.0783         0.0138       559.6662         1.7868         0.0338       559.6677         1.7868         1.8831         1.0000         0.0200        80.6188
      1137.1000         1.8279        -0.8559         9.1124         0.0141       564.5813         1.7712         0.0357       564.5890         1.7712         1.8759         1.0000         0.0216        80.5874
      1137.2250         1.8238        -0.8947         9.1252         0.0145       564.4657         1.7716         0.0374       564.4699         1.7716         1.8677         1.0000         0.0230        80.5486
      1137.3500         1.8262        -0.9254         9.0616         0.0146       560.9364         1.7828         0.0384       560.9355         1.7828         1.8624         1.0000         0.0239        80.5179
      1137.4750         1.8352        -0.9561         8.9894         0.0142       556.1257         1.7982         0.0387       556.1173         1.7982         1.8659         1.0000         0.0245        80.4872
      1137.6000         1.8514        -0.9815         8.9242         0.0136       550.7629         1.8157         0.0383       550.7518         1.8157         1.8810         1.0000         0.0247        80.4618
      1137.7250         1.8741        -0.9682         8.9351         0.0131       545.9687         1.8316         0.0378       545.9796         1.8316         1.9095         1.0000         0.0247        80.4751
      1137.8500         1.8958        -0.9575         9.0101         0.0129       542.8388         1.8422         0.0373       542.8447         1.8422         1.9410         1.0000         0.0244        80.4858
      1137.9750         1.9086        -0.9468         9.0715         0.0129       542.0839         1.8447         0.0371       542.0936         1.8447         1.9630         1.0000         0.0242        80.4965
      1138.1000         1.9066        -0.9335         9.0629         0.0131       544.5226         1.8365         0.0370       544.5140         1.8365         1.9667         1.0000         0.0239        80.5098
      1138.2250         1.8870        -0.9188         8.9878         0.0137       550.3499         1.8170         0.0371       550.3569         1.8170         1.9469         1.0000         0.0234        80.5245
      1138.3500         1.8560        -0.8961         9.0134         0.0145       557.8947         1.7925         0.0376       557.8858         1.7925         1.9102         1.0000         0.0231        80.5472
      1138.4750         1.8171        -0.8874         9.1498         0.0154       566.9642         1.7638         0.0385       566.9615         1.7638         1.8621         1.0000         0.0231        80.5558
      1138.6000         1.7734        -0.8881         9.1964         0.0161       577.8267         1.7306         0.0395       577.8343         1.7306         1.8092         1.0000         0.0234        80.5552
      1138.7250         1.7337        -0.8875         9.2015         0.0163       589.2480         1.6972         0.0405       589.2412         1.6972         1.7641         1.0000         0.0242        80.5558
      1138.8500         1.7045        -0.8815         9.1948         0.0170       598.6744         1.6704         0.0423       598.6602         1.6704         1.7329         1.0000         0.0253        80.5618
      1138.9750         1.6859        -0.8875         9.2060         0.0184       605.4202         1.6517         0.0450       605.4255         1.6517         1.7142         1.0000         0.0266        80.5558
      1139.1000         1.6740        -0.9015         9.1462         0.0203       610.3807         1.6383         0.0481       610.3889         1.6383         1.7037         1.0000         0.0277        80.5418
      1139.2250         1.6653        -0.9356         9.0325         0.0212       614.6797         1.6269         0.0499       614.6809         1.6269         1.6974         1.0000         0.0287        80.5077
      1139.3500         1.6583        -1.0044         8.8838         0.0210       618.8229         1.6160         0.0506       618.8171         1.6160         1.6937         1.0000         0.0297        80.4389
      1139.4750         1.6527        -1.0812         8.7949         0.0200       622.2877         1.6070         0.0504       622.2794         1.6070         1.6912         1.0000         0.0304        80.3621
      1139.6000         1.6499        -1.1633         8.6904         0.0188       624.3223         1.6017         0.0495       624.3367         1.6017         1.6905         1.0000         0.0307        80.2800
      1139.7250         1.6512        -1.2488         8.7828         0.0176       624.7111         1.6007         0.0480       624.7167         1.6007         1.6940         1.0000         0.0304        80.1945
      1139.8500         1.6543        -1.3356         8.9219         0.0165       624.1668         1.6022         0.0465       624.1613         1.6022         1.6985         1.0000         0.0299        80.1077
