#----------------------------------------------------------------------------------
#
# APPLICATION : SAHARA 3.2.110
# DATE        : 04/07/2024 19:46:19
# PROJECT     : VH-III
#
#----------------------------------------------------------------------------------
~Version Information
VERS. 2.0 : CWLS LOG ASCII STANDARD - VERSION 2.0
WRAP.  NO : One line per depth step
~Well Information
#MNEMONIC   .UNIT                                           VALUE : DESCRIPTION
#----------------------------------------------------------------------------------
STRT        .M                                           283.2000 : START DEPTH
STOP        .M                                          1987.2000 : STOP DEPTH
STEP        .M                                           125.0000 : STEP
NULL        .                                           -999.2500 : NULL VALUE
COMP        .                                                     : COMPANY
WELL        .                                             PVH-937 : WELL NAME
FLD         .                                                     : FIELD
LOC         .                                                     : LOCATION
PROV        .                                                     : PROVINCE
SRVC        .                                                     : SERVICE COMPANY
DATE        .                                                     : DATE
UWI         .                                          5420001652 : UNIQUE WELL ID
XCOORD      .                                        2539513.9200 : SURFACE X
YCOORD      .                                        4929943.0400 : SURFACE Y
ELEV        .M                                           388.2200 : SURFACE ELEV
~Curve Information
#MNEMONIC   .UNIT                       API CODES           CURVE : DESCRIPTION
#----------------------------------------------------------------------------------
DEPTH       .M                        00 000 00 00                : CURVE # 18
HDRS        .OHM.M                    00 000 00 00                : CURVE # 2
SPED        .MV                       00 000 00 00                : CURVE # 4
LITHO_VHIII .                         00 000 00 00                : CURVE # 5
CALA        .                         00 000 00 00                : CURVE # 10
HT24        .OHM.M                    00 000 00 00                : CURVE # 11
MPHIA       .FR.                      00 000 00 00                : CURVE # 12
HDCN        .                         00 000 00 00                : CURVE # 19
HMRS        .OHM.M                    00 000 00 00                : CURVE # 20
HT90        .OHM.M                    00 000 00 00                : CURVE # 21
MBVIA       .FR.                      00 000 00 00                : CURVE # 22
SPB         .MV                       00 000 00 00                : CURVE # 23
~A        DEPTH           HDRS           SPED    LITHO_VHIII           CALA           HT24          MPHIA           HDCN           HMRS           HT90          MBVIA            SPB
# ...
       620.7000         1.2560        -0.7744         1.0000        15.2558         1.0590      -999.2500       796.1630         1.1384         1.2560      -999.2500        77.6413
       620.8250         1.2543        -0.6539         1.0000        15.7936         1.0735      -999.2500       797.2728         1.1469         1.2543      -999.2500        77.7766
       620.9500         1.2512        -0.5608         1.0000        15.6758         1.0910      -999.2500       799.2451         1.1567         1.2512      -999.2500        77.8846
       621.0750         1.2474        -0.4861         1.0000        14.6869         1.1089      -999.2500       801.6642         1.1664         1.2474      -999.2500        77.9740
       621.2000         1.2443        -0.4237         1.0000        13.6603         1.1272      -999.2500       803.6368         1.1764         1.2443      -999.2500        78.0512
       621.3250         1.2437        -0.4441         1.0000        12.9978         1.1468      -999.2500       804.0223         1.1880         1.2437      -999.2500        78.0457
       621.4500         1.2472        -0.4316         1.0000        12.9458         1.1662      -999.2500       801.7765         1.2009         1.2472      -999.2500        78.0730
       621.5750         1.2585        -0.3494         1.0000        12.9119         1.1853      -999.2500       794.6251         1.2168         1.2585      -999.2500        78.1700
       621.7000         1.2857        -0.3629         1.0000        12.5443         1.2073      -999.2500       777.8105         1.2409         1.2857      -999.2500        78.1713
       621.8250         1.3364        -0.4577         1.0000        11.8961         1.2399      -999.2500       748.4529         1.2810         1.3364      -999.2500        78.0912
       621.9500         1.3821        -0.5677         1.0000        11.4964         1.2639      -999.2500       723.6298         1.3138         1.3821      -999.2500        77.9961
       622.0750         1.3859        -0.6715         1.0000        11.7080         1.2575      -999.2500       721.5184         1.3115         1.3859      -999.2500        77.9072
       622.2000         1.3427        -0.7204         1.0000        12.3520         1.2170      -999.2500       744.7715         1.2699         1.3427      -999.2500        77.8730
       622.3250         1.2943        -0.6438         1.0000        12.6886         1.1667      -999.2500       772.6672         1.2202         1.2943      -999.2500        77.9645
       622.4500         1.2815        -0.3920         1.0000        12.0703         1.1580      -999.2500       780.3470         1.2098         1.2815      -999.2500        78.2311
       622.5750         1.3239        -0.0069         1.0000        11.1846         1.2203      -999.2500       755.5558         1.2642         1.3239      -999.2500        78.6310
       622.7000         1.4097         0.2838         1.0000        10.5444         1.3353      -999.2500       709.3710         1.3674         1.4097      -999.2500        78.9365
       622.8250         1.4767         0.6327         1.0000        10.8599         1.4265      -999.2500       677.2243         1.4483         1.4767      -999.2500        79.3001
       622.9500         1.4901         0.9090         1.0000        11.4366         1.4218      -999.2500       671.1052         1.4513         1.4901      -999.2500        79.5914
       623.0750         1.4869         0.6665         1.0000        11.9218         1.3863      -999.2500       672.5564         1.4293         1.4869      -999.2500        79.3636
       623.2000         1.5261        -0.0218         1.0000        12.1449         1.4136      -999.2500       655.2505         1.4615         1.5261      -999.2500        78.6901
       623.3250         1.6674        -0.3129         1.0000        11.9738         1.5723      -999.2500       600.7863         1.6132         1.6674      -999.2500        78.4139
       623.4500         1.8844        -0.9048         1.0000        11.3427         1.7924      -999.2500       532.0012         1.8321         1.8844      -999.2500        77.8367
       623.5750         2.0656        -1.4720         1.0000        10.5106         1.9441      -999.2500       484.4255         1.9963         2.0656      -999.2500        77.2843
       623.7000         2.1232        -2.3320         1.0000         9.8064         1.9339      -999.2500       470.9807         2.0137         2.1232      -999.2500        76.4392
       623.8250         2.0908        -2.9895         1.0000         9.5753         1.8472      -999.2500       478.2934         1.9481         2.0908      -999.2500        75.7965
       623.9500         2.0810        -3.2176         1.0000         9.5012         1.8405      -999.2500       480.5547         1.9400         2.0810      -999.2500        75.5831
       624.0750         2.1470        -3.9791         1.0000         9.4351         1.9621      -999.2500       465.8760         2.0401         2.1470      -999.2500        74.8365
       624.2000         2.2690        -4.7542        -1.0000         9.3469         2.1952      -999.2500       440.7144         2.2274         2.2690      -999.2500        74.0762
       624.3250         2.3556        -5.3372        -1.0000         9.1660         2.4315      -999.2500       424.5310         2.3970         2.3556      -999.2500        73.5080
       624.4500         2.3771        -5.8546        -1.0000         8.9767         2.5418      -999.2500       420.6788         2.4658         2.3771      -999.2500        73.0054
       624.5750         2.3506        -6.2755        -1.0000         8.8974         2.5306      -999.2500       425.4315         2.4473         2.3506      -999.2500        72.6136
       624.7000         2.3155        -7.0913        -1.0000         9.0177         2.4685      -999.2500       431.8638         2.3981         2.3155      -999.2500        71.8362
       624.8250         2.3084        -7.4703        -1.0000         9.1245         2.4272      -999.2500       433.2057         2.3729         2.3084      -999.2500        71.4957
       624.9500         2.3386        -7.9396        -1.0000         9.1126         2.4379      -999.2500       427.6525         2.3927         2.3386      -999.2500        71.0649
       625.0750         2.4073        -8.4970        -1.0000         9.0265         2.5055      -999.2500       415.4565         2.4609         2.4073      -999.2500        70.5460
       625.2000         2.5014        -9.3183        -1.0000         8.9641         2.6153      -999.2500       399.7688         2.5635         2.5014      -999.2500        69.7631
       625.3250         2.5947        -9.9715        -1.0000         8.9207         2.7318      -999.2500       385.4421         2.6691         2.5947      -999.2500        69.1484
       625.4500         2.6739       -10.3853        -1.0000         8.9819         2.8355      -999.2500       374.0374         2.7613         2.6739      -999.2500        68.7730
       625.5750         2.7538       -10.5510        -1.0000         9.0162         2.9392      -999.2500       363.1722         2.8538         2.7538      -999.2500        68.6458
       625.7000         2.8568       -10.8289        -1.0000         8.9980         3.0461      -999.2500       350.0406         2.9589         2.8568      -999.2500        68.4064
       625.8250         2.9723       -11.1347        -1.0000         8.8235         3.1372      -999.2500       336.4933         3.0617         2.9723      -999.2500        68.1390
       625.9500         3.0751       -11.3421        -1.0000         8.6944         3.1837      -999.2500       325.2372         3.1344         3.0751      -999.2500        67.9701
       626.0750         3.1449       -11.2603        -1.0000         8.6600         3.1950      -999.2500       317.9844         3.1725         3.1449      -999.2500        68.0904
       626.2000         3.1722       -11.3166        -1.0000         8.6684         3.1867      -999.2500       315.2427         3.1802         3.1722      -999.2500        68.0725
