#----------------------------------------------------------------------------------
#
# APPLICATION : SAHARA 3.2.110
# DATE        : 04/07/2024 19:46:19
# PROJECT     : VH-III
#
#----------------------------------------------------------------------------------
~Version Information
VERS. 2.0 : CWLS LOG ASCII STANDARD - VERSION 2.0
WRAP.  NO : One line per depth step
~Well Information
#MNEMONIC   .UNIT                                           VALUE : DESCRIPTION
#----------------------------------------------------------------------------------
STRT        .M                                           283.2000 : START DEPTH
STOP        .M                                          1987.2000 : STOP DEPTH
STEP        .M                                           125.0000 : STEP
NULL        .                                           -999.2500 : NULL VALUE
COMP        .                                                     : COMPANY
WELL        .                                             PVH-937 : WELL NAME
FLD         .                                                     : FIELD
LOC         .                                                     : LOCATION
PROV        .                                                     : PROVINCE
SRVC        .                                                     : SERVICE COMPANY
DATE        .                                                     : DATE
UWI         .                                          5420001652 : UNIQUE WELL ID
XCOORD      .                                        2539513.9200 : SURFACE X
YCOORD      .                                        4929943.0400 : SURFACE Y
ELEV        .M                                           388.2200 : SURFACE ELEV
~Curve Information
#MNEMONIC   .UNIT                       API CODES           CURVE : DESCRIPTION
#----------------------------------------------------------------------------------
DEPTH       .M                        00 000 00 00                : CURVE # 18
HDRS        .OHM.M                    00 000 00 00                : CURVE # 2
SPED        .MV                       00 000 00 00                : CURVE # 4
LITHO_VHIII .                         00 000 00 00                : CURVE # 5
CALA        .                         00 000 00 00                : CURVE # 10
HT24        .OHM.M                    00 000 00 00                : CURVE # 11
MPHIA       .FR.                      00 000 00 00                : CURVE # 12
HDCN        .                         00 000 00 00                : CURVE # 19
HMRS        .OHM.M                    00 000 00 00                : CURVE # 20
HT90        .OHM.M                    00 000 00 00                : CURVE # 21
MBVIA       .FR.                      00 000 00 00                : CURVE # 22
SPB         .MV                       00 000 00 00                : CURVE # 23
~A        DEPTH           HDRS           SPED    LITHO_VHIII           CALA           HT24          MPHIA           HDCN           HMRS           HT90          MBVIA            SPB
       283.2000       106.3017      -999.2500      -999.2500         8.9423     20000.0000      -999.2500         9.4072     20000.0000       106.3017      -999.2500       169.7640
       283.3250       105.3947      -999.2500      -999.2500         8.9422     20000.0000      -999.2500         9.4884     20000.0000       105.3947      -999.2500       169.8419
       283.4500       103.6490      -999.2500      -999.2500         8.9408     20000.0000      -999.2500         9.6484     20000.0000       103.6490      -999.2500       169.9348
       283.5750       102.1016      -999.2500      -999.2500         8.9393     20000.0000      -999.2500         9.7944     20000.0000       102.1016      -999.2500       170.0176
       283.7000       101.6863      -999.2500      -999.2500         8.9378     20000.0000      -999.2500         9.8342     20000.0000       101.6863      -999.2500       170.2343
       283.8250       102.7851      -999.2500      -999.2500         8.9375     20000.0000      -999.2500         9.7294     20000.0000       102.7851      -999.2500       170.3129
       283.9500       104.3967      -999.2500      -999.2500         8.9377     20000.0000      -999.2500         9.5792     20000.0000       104.3967      -999.2500       170.4599
       284.0750       105.5412      -999.2500      -999.2500         8.9377     20000.0000      -999.2500         9.4750     20000.0000       105.5412      -999.2500       170.6254
       284.2000       105.6917      -999.2500      -999.2500         8.9382     20000.0000      -999.2500         9.4615     20000.0000       105.6917      -999.2500       170.7922
       284.3250       105.0663      -999.2500      -999.2500         8.9403     20000.0000      -999.2500         9.5178     20000.0000       105.0663      -999.2500       170.9057
       284.4500       104.4882      -999.2500      -999.2500         8.9420     20000.0000      -999.2500         9.5705     20000.0000       104.4882      -999.2500       170.9576
       284.5750       104.2183      -999.2500      -999.2500         8.9413     20000.0000      -999.2500         9.5953     20000.0000       104.2183      -999.2500       171.0794
       284.7000       104.0051      -999.2500      -999.2500         8.9389     20000.0000      -999.2500         9.6149     20000.0000       104.0051      -999.2500       171.1149
       284.8250       103.3976      -999.2500      -999.2500         8.9364     20000.0000      -999.2500         9.6715     20000.0000       103.3976      -999.2500       171.1901
       284.9500       102.5949      -999.2500      -999.2500         8.9349     20000.0000      -999.2500         9.7472     20000.0000       102.5949      -999.2500       171.1614
       285.0750       102.1414      -999.2500      -999.2500         8.9338     20000.0000      -999.2500         9.7904     20000.0000       102.1414      -999.2500       171.1758
       285.2000       102.4066      -999.2500      -999.2500         8.9338     20000.0000      -999.2500         9.7650     20000.0000       102.4066      -999.2500       171.2626
       285.3250       103.2893      -999.2500      -999.2500         8.9355     20000.0000      -999.2500         9.6817     20000.0000       103.2893      -999.2500       171.3480
       285.4500       104.2695      -999.2500      -999.2500         8.9375     20000.0000      -999.2500         9.5906     20000.0000       104.2695      -999.2500       171.4622
       285.5750       105.2938      -999.2500      -999.2500         8.9373     20000.0000      -999.2500         9.4974     20000.0000       105.2938      -999.2500       171.4718
       285.7000       106.6553      -999.2500      -999.2500         8.9354     20000.0000      -999.2500         9.3760     20000.0000       106.6553      -999.2500       171.5497
       285.8250       108.6614      -999.2500      -999.2500         8.9340     20000.0000      -999.2500         9.2034     20000.0000       108.6614      -999.2500       171.5682
       285.9500       110.8224      -999.2500      -999.2500         8.9335     20000.0000      -999.2500         9.0240     20000.0000       110.8224      -999.2500       171.5347
       286.0750       112.2759      -999.2500      -999.2500         8.9345     20000.0000      -999.2500         8.9067     20000.0000       112.2759      -999.2500       171.3555
       286.2000       112.1934      -999.2500      -999.2500         8.9367     20000.0000      -999.2500         8.9132     20000.0000       112.1934      -999.2500       171.0739
       286.3250       110.2444      -999.2500      -999.2500         8.9394     20000.0000      -999.2500         9.0713     20000.0000       110.2444      -999.2500       170.8285
       286.4500       107.6665      -999.2500      -999.2500         8.9410     20000.0000      -999.2500         9.2887     20000.0000       107.6665      -999.2500       170.4586
       286.5750       105.5761      -999.2500      -999.2500         8.9417     20000.0000      -999.2500         9.4722     20000.0000       105.5761      -999.2500       170.1215
       286.7000       104.6822      -999.2500      -999.2500         8.9416     20000.0000      -999.2500         9.5527     20000.0000       104.6822      -999.2500       169.7202
       286.8250       105.2630      -999.2500      -999.2500         8.9405     20000.0000      -999.2500         9.5002     20000.0000       105.2630      -999.2500       169.4290
       286.9500       106.6502      -999.2500      -999.2500         8.9399     20000.0000      -999.2500         9.3768     20000.0000       106.6502      -999.2500       169.1377
       287.0750       108.2757      -999.2500      -999.2500         8.9403     20000.0000      -999.2500         9.2359     20000.0000       108.2757      -999.2500       168.7664
       287.2000       109.5952      -999.2500      -999.2500         8.9424     20000.0000      -999.2500         9.1245     20000.0000       109.5952      -999.2500       168.4650
       287.3250       109.9463      -999.2500      -999.2500         8.9457     20000.0000      -999.2500         9.0954     20000.0000       109.9463      -999.2500       168.1868
       287.4500       109.2116      -999.2500      -999.2500         8.9489     20000.0000      -999.2500         9.1567     20000.0000       109.2116      -999.2500       167.8661
       287.5750       107.6726      -999.2500      -999.2500         8.9492     20000.0000      -999.2500         9.2877     20000.0000       107.6726      -999.2500       167.5516
       287.7000       106.0418      -999.2500      -999.2500         8.9462     20000.0000      -999.2500         9.4302     20000.0000       106.0418      -999.2500       167.2207
       287.8250       105.1651      -999.2500      -999.2500         8.9435     20000.0000      -999.2500         9.5089     20000.0000       105.1651      -999.2500       166.9828
       287.9500       105.0116      -999.2500      -999.2500         8.9424     20000.0000      -999.2500         9.5228     20000.0000       105.0116      -999.2500       166.7872
       288.0750       105.0770      -999.2500      -999.2500         8.9427     20000.0000      -999.2500         9.5168     20000.0000       105.0770      -999.2500       166.6204
       288.2000       104.8119      -999.2500      -999.2500         8.9424     20000.0000      -999.2500         9.5409     20000.0000       104.8119      -999.2500       166.4796
       288.3250       104.0947      -999.2500      -999.2500         8.9407     20000.0000      -999.2500         9.6067     20000.0000       104.0947      -999.2500       166.4570
       288.4500       103.5403      -999.2500      -999.2500         8.9399     20000.0000      -999.2500         9.6581     20000.0000       103.5403      -999.2500       166.4850
       288.5750       103.6731      -999.2500      -999.2500         8.9391     20000.0000      -999.2500         9.6457     20000.0000       103.6731      -999.2500       166.6300
       288.7000       104.6036      -999.2500      -999.2500         8.9389     20000.0000      -999.2500         9.5599     20000.0000       104.6036      -999.2500       166.6628
