#----------------------------------------------------------------------------------
#
# APPLICATION : SAHARA 3.2.110
# DATE        : 04/07/2024 19:46:19
# PROJECT     : VH-III
#
#----------------------------------------------------------------------------------
~Version Information
VERS. 2.0 : CWLS LOG ASCII STANDARD - VERSION 2.0
WRAP.  NO : One line per depth step
~Well Information
#MNEMONIC   .UNIT                                           VALUE : DESCRIPTION
#----------------------------------------------------------------------------------
STRT        .M                                           283.2000 : START DEPTH
STOP        .M                                          1987.2000 : STOP DEPTH
STEP        .M                                           125.0000 : STEP
NULL        .                                           -999.2500 : NULL VALUE
COMP        .                                                     : COMPANY
WELL        .                                             PVH-937 : WELL NAME
FLD         .                                                     : FIELD
LOC         .                                                     : LOCATION
PROV        .                                                     : PROVINCE
SRVC        .                                                     : SERVICE COMPANY
DATE        .                                                     : DATE
UWI         .                                          5420001652 : UNIQUE WELL ID
XCOORD      .                                        2539513.9200 : SURFACE X
YCOORD      .                                        4929943.0400 : SURFACE Y
ELEV        .M                                           388.2200 : SURFACE ELEV
~Curve Information
#MNEMONIC   .UNIT                       API CODES           CURVE : DESCRIPTION
#----------------------------------------------------------------------------------
DEPTH       .M                        00 000 00 00                : CURVE # 18
HDRS        .OHM.M                    00 000 00 00                : CURVE # 2
SPED        .MV                       00 000 00 00                : CURVE # 4
LITHO_VHIII .                         00 000 00 00                : CURVE # 5
CALA        .                         00 000 00 00                : CURVE # 10
HT24        .OHM.M                    00 000 00 00                : CURVE # 11
MPHIA       .FR.                      00 000 00 00                : CURVE # 12
HDCN        .                         00 000 00 00                : CURVE # 19
HMRS        .OHM.M                    00 000 00 00                : CURVE # 20
HT90        .OHM.M                    00 000 00 00                : CURVE # 21
MBVIA       .FR.                      00 000 00 00                : CURVE # 22
SPB         .MV                       00 000 00 00                : CURVE # 23
~A        DEPTH           HDRS           SPED    LITHO_VHIII           CALA           HT24          MPHIA           HDCN           HMRS           HT90          MBVIA            SPB
# ...
       508.2000         2.8473        -4.3152      -999.2500         9.2772         2.7691      -999.2500       351.2090         2.8033         2.8473      -999.2500        77.1281
       508.3250         2.8797        -4.3530      -999.2500         9.3196         2.7736      -999.2500       347.2588         2.8198         2.8798      -999.2500        77.0902
       508.4500         2.9038        -4.3348      -999.2500         9.3498         2.7667      -999.2500       344.3764         2.8261         2.9038      -999.2500        77.1086
       508.5750         2.9306        -4.2180      -999.2500         9.4026         2.7487      -999.2500       341.2313         2.8267         2.9306      -999.2500        77.2253
       508.7000         2.9652        -4.0206      -999.2500         9.4219         2.7249      -999.2500       337.2494         2.8267         2.9652      -999.2500        77.4227
       508.8250         2.9719        -3.7651      -999.2500         9.7710         2.6794      -999.2500       336.4851         2.8020         2.9719      -999.2500        77.6782
       508.9500         2.9497        -3.5246      -999.2500        10.1425         2.6099      -999.2500       339.0309         2.7507         2.9496      -999.2500        77.9187
       509.0750         2.9544        -3.2390      -999.2500        10.3063         2.5541      -999.2500       338.4792         2.7177         2.9544      -999.2500        78.2043
       509.2000         3.0292        -2.9465      -999.2500        10.1265         2.5269      -999.2500       330.1212         2.7280         3.0292      -999.2500        78.4968
       509.3250         3.0789        -2.6677      -999.2500        10.1167         2.4478      -999.2500       324.8098         2.6929         3.0789      -999.2500        78.7756
       509.4500         2.9364        -2.4355      -999.2500        10.2797         2.2317      -999.2500       340.9722         2.4980         2.9363      -999.2500        79.0078
       509.5750         2.6021        -2.1971      -999.2500        10.3939         1.9377      -999.2500       385.2560         2.1857         2.6021      -999.2500        79.2463
       509.7000         2.2250        -1.9436      -999.2500        10.3627         1.6669      -999.2500       449.4456         1.8761         2.2250      -999.2500        79.4997
       509.8250         1.9664        -1.8022      -999.2500        10.0761         1.4958      -999.2500       508.9982         1.6739         1.9664      -999.2500        79.6411
       509.9500         1.8373        -1.7224      -999.2500         9.7835         1.4106      -999.2500       544.3977         1.5730         1.8373      -999.2500        79.7209
       510.0750         1.8085        -1.6877      -999.2500         9.4098         1.3874      -999.2500       552.9427         1.5475         1.8085      -999.2500        79.7556
       510.2000         1.8384        -1.6462      -999.2500         9.1003         1.4012      -999.2500       543.9471         1.5668         1.8384      -999.2500        79.7971
       510.3250         1.8932        -1.5958      -999.2500         8.8724         1.4272      -999.2500       528.2540         1.6025         1.8932      -999.2500        79.8475
       510.4500         1.9437        -1.6123      -999.2500         8.8019         1.4458      -999.2500       514.5333         1.6314         1.9437      -999.2500        79.8310
       510.5750         1.9808        -1.6371      -999.2500         8.9301         1.4516      -999.2500       504.8472         1.6472         1.9809      -999.2500        79.8062
       510.7000         2.0042        -1.6496      -999.2500         9.0183         1.4485      -999.2500       498.9403         1.6521         2.0042      -999.2500        79.7937
       510.8250         2.0145        -1.6798      -999.2500         8.7704         1.4419      -999.2500       496.3939         1.6504         2.0145      -999.2500        79.7635
       510.9500         2.0161        -1.7251      -999.2500         8.3800         1.4358      -999.2500       496.0211         1.6464         2.0160      -999.2500        79.7182
       511.0750         2.0104        -1.8873      -999.2500         8.0619         1.4332      -999.2500       497.4075         1.6429         2.0104      -999.2500        79.5560
       511.2000         2.0022        -2.0741      -999.2500         8.0096         1.4355      -999.2500       499.4572         1.6421         2.0022      -999.2500        79.3692
       511.3250         1.9934        -2.2862      -999.2500         8.0516         1.4414      -999.2500       501.6691         1.6437         1.9934      -999.2500        79.1571
       511.4500         1.9828        -2.5571      -999.2500         8.1319         1.4462      -999.2500       504.3336         1.6439         1.9828      -999.2500        78.8861
       511.5750         1.9715        -2.8383      -999.2500         8.2694         1.4482      -999.2500       507.2294         1.6418         1.9715      -999.2500        78.6050
       511.7000         1.9600        -3.1632      -999.2500         8.5051         1.4490      -999.2500       510.1917         1.6389         1.9600      -999.2500        78.2801
       511.8250         1.9568        -3.4341      -999.2500         8.8424         1.4535      -999.2500       511.0238         1.6411         1.9569      -999.2500        78.0092
       511.9500         1.9726        -3.5368      -999.2500         9.3344         1.4716      -999.2500       506.9553         1.6588         1.9727      -999.2500        77.9064
       512.0750         2.0191        -3.5062      -999.2500         9.8118         1.5080      -999.2500       495.3160         1.6992         2.0191      -999.2500        77.9371
       512.2000         2.0834        -3.3499      -999.2500        10.1164         1.5602      -999.2500       479.9836         1.7562         2.0834      -999.2500        78.0934
       512.3250         2.1277        -3.0294      -999.2500        10.3062         1.6153      -999.2500       469.9921         1.8089         2.1277      -999.2500        78.4140
       512.4500         2.1322        -2.6884      -999.2500        10.3624         1.6600      -999.2500       468.9949         1.8412         2.1322      -999.2500        78.7549
       512.5750         2.1013        -2.2531      -999.2500        10.4510         1.6871      -999.2500       475.9224         1.8490         2.1013      -999.2500        79.1902
       512.7000         2.0489        -1.8382      -999.2500        10.3659         1.6920      -999.2500       488.0675         1.8340         2.0489      -999.2500        79.6051
       512.8250         1.9809        -1.5663      -999.2500        10.2321         1.6748      -999.2500       504.9013         1.7983         1.9809      -999.2500        79.8770
       512.9500         1.9051        -1.4051      -999.2500        10.1149         1.6476      -999.2500       525.0387         1.7529         1.9051      -999.2500        80.0382
       513.0750         1.8313        -1.3301      -999.2500        10.2402         1.6150      -999.2500       546.1511         1.7045         1.8313      -999.2500        80.1132
       513.2000         1.7696        -1.2455      -999.2500        10.4312         1.5818      -999.2500       565.1019         1.6601         1.7696      -999.2500        80.1978
       513.3250         1.7297        -1.1998      -999.2500        10.6774         1.5578      -999.2500       578.1501         1.6298         1.7297      -999.2500        80.2435
       513.4500         1.7097        -1.2157      -999.2500        10.6372         1.5551      -999.2500       584.9061         1.6201         1.7097      -999.2500        80.2276
       513.5750         1.7209        -1.2193      -999.2500        10.6491         1.5833      -999.2500       581.1076         1.6416         1.7209      -999.2500        80.2240
       513.7000         1.7731        -1.2051      -999.2500        10.6403         1.6473      -999.2500       563.9852         1.7009         1.7731      -999.2500        80.2382
