#----------------------------------------------------------------------------------
#
# APPLICATION : SAHARA 3.2.110
# DATE        : 04/07/2024 19:46:19
# PROJECT     : VH-III
#
#----------------------------------------------------------------------------------
~Version Information
VERS. 2.0 : CWLS LOG ASCII STANDARD - VERSION 2.0
WRAP.  NO : One line per depth step
~Well Information
#MNEMONIC   .UNIT                                           VALUE : DESCRIPTION
#----------------------------------------------------------------------------------
STRT        .M                                           283.2000 : START DEPTH
STOP        .M                                          1987.2000 : STOP DEPTH
STEP        .M                                           125.0000 : STEP
NULL        .                                           -999.2500 : NULL VALUE
COMP        .                                                     : COMPANY
WELL        .                                             PVH-937 : WELL NAME
FLD         .                                                     : FIELD
LOC         .                                                     : LOCATION
PROV        .                                                     : PROVINCE
SRVC        .                                                     : SERVICE COMPANY
DATE        .                                                     : DATE
UWI         .                                          5420001652 : UNIQUE WELL ID
XCOORD      .                                        2539513.9200 : SURFACE X
YCOORD      .                                        4929943.0400 : SURFACE Y
ELEV        .M                                           388.2200 : SURFACE ELEV
~Curve Information
#MNEMONIC   .UNIT                       API CODES           CURVE : DESCRIPTION
#----------------------------------------------------------------------------------
DEPTH       .M                        00 000 00 00                : CURVE # 18
HDRS        .OHM.M                    00 000 00 00                : CURVE # 2
SPED        .MV                       00 000 00 00                : CURVE # 4
LITHO_VHIII .                         00 000 00 00                : CURVE # 5
CALA        .                         00 000 00 00                : CURVE # 10
HT24        .OHM.M                    00 000 00 00                : CURVE # 11
MPHIA       .FR.                      00 000 00 00                : CURVE # 12
HDCN        .                         00 000 00 00                : CURVE # 19
HMRS        .OHM.M                    00 000 00 00                : CURVE # 20
HT90        .OHM.M                    00 000 00 00                : CURVE # 21
MBVIA       .FR.                      00 000 00 00                : CURVE # 22
SPB         .MV                       00 000 00 00                : CURVE # 23
~A        DEPTH           HDRS           SPED    LITHO_VHIII           CALA           HT24          MPHIA           HDCN           HMRS           HT90          MBVIA            SPB
# ...
      1301.3250         4.0355        -1.1868         1.0000         9.0779         3.8873         0.0712       247.8526         3.9517         4.0357         0.0666        77.7436
      1301.4500         4.2431        -1.2660         1.0000         9.0754         4.0653         0.0762       235.8171         4.1424         4.2431         0.0717        77.6076
      1301.5750         4.5289        -1.4026         1.0000         9.0705         4.3068         0.0811       220.9271         4.4028         4.5289         0.0764        77.4140
      1301.7000         4.8030        -1.5188         1.0000         9.0753         4.5299         0.0853       208.2015         4.6474         4.8030         0.0797        77.2411
      1301.8250         4.9513        -1.6992         1.0000         9.0807         4.6875         0.0879       201.9747         4.8012         4.9513         0.0801        77.0038
      1301.9500         5.0233        -1.8276         1.0000         9.0856         4.8421         0.0898       199.0789         4.9209         5.0233         0.0791        76.8186
      1302.0750         5.1427        -2.0155         1.0000         9.0945         5.0922         0.0922       194.4703         5.1145         5.1427         0.0791        76.5738
      1302.2000         5.3845        -2.2595         1.0000         9.0998         5.3701         0.0958       185.7182         5.3765         5.3845         0.0810        76.2729
      1302.3250         5.7465        -2.6438         1.0000         9.0972         5.5083         0.1003       174.1294         5.6111         5.7468         0.0841        75.8318
      1302.4500         6.2360        -3.1275         1.0000         9.0999         5.7276         0.1052       160.5891         5.9427         6.2360         0.0867        75.2913
      1302.5750         6.9389        -3.6915         1.0000         9.0748         6.2453         0.1105       144.3439         6.5357         6.9389         0.0889        74.6703
      1302.7000         7.7552        -4.3023         1.0000         9.0282         6.9899         0.1160       128.9461         7.3105         7.7552         0.0907        74.0769
      1302.8250         8.3723        -4.9145         1.0000         8.9648         7.5636         0.1213       119.5042         7.9024         8.3728         0.0923        73.5004
      1302.9500         8.9999        -5.4403         1.0000         8.9440         8.3988         0.1265       111.2272         8.6551         8.9999         0.0938        73.0105
      1303.0750         9.8883        -5.8043        -1.0000         8.9713         9.8476         0.1311       101.2586         9.8639         9.8883         0.0944        72.6822
      1303.2000        10.9821        -6.0698        -1.0000         9.0036        11.5471         0.1344        91.0574        11.2890        10.9821         0.0934        72.4525
      1303.3250        12.1703        -6.0708        -1.0000         9.0111        12.8264         0.1364        82.2644        12.5256        12.1712         0.0908        72.4873
      1303.4500        13.3842        -6.0212        -1.0000         8.9849        13.7642         0.1381        74.8095        13.5924        13.3842         0.0883        72.5728
      1303.5750        14.4447        -5.9141        -1.0000         8.9574        14.5474         0.1395        69.2685        14.5014        14.4447         0.0862        72.7157
      1303.7000        15.0188        -5.8193        -1.0000         8.9361        14.9496         0.1407        66.5834        14.9803        15.0188         0.0844        72.8462
      1303.8250        14.7153        -5.7895        -1.0000         8.9014        14.7890         0.1415        67.9816        14.7562        14.7147         0.0832        72.9118
      1303.9500        13.7429        -5.8348        -1.0000         8.8438        14.0507         0.1417        72.8566        13.9121        13.7429         0.0826        72.9022
      1304.0750        12.4545        -5.9028         1.0000         8.7938        12.8714         0.1418        80.3979        12.6827        12.4545         0.0825        72.8701
      1304.2000        11.2710        -6.0008         1.0000         8.7702        11.7078         0.1429        88.7231        11.5096        11.2710         0.0838        72.8079
      1304.3250        10.6003        -6.1364         1.0000         8.7915        11.0302         0.1457        94.3461        10.8351        10.6001         0.0874        72.7081
      1304.4500        10.4560        -6.2543         1.0000         8.8447        10.8417         0.1488        95.6407        10.6668        10.4560         0.0918        72.6260
      1304.5750        10.7377        -6.3619        -1.0000         8.9000        11.0677         0.1498        93.1457        10.9186        10.7377         0.0942        72.5543
      1304.7000        11.2611        -6.4011        -1.0000         8.9481        11.5422         0.1482        88.8015        11.4155        11.2611         0.0944        72.5508
      1304.8250        11.7050        -6.3603        -1.0000         8.9678        11.8414         0.1450        85.4362        11.7803        11.7052         0.0932        72.6274
      1304.9500        11.7670        -6.2936        -1.0000         8.9832        11.7839         0.1410        84.9859        11.7764        11.7670         0.0914        72.7299
      1305.0750        11.4240        -6.1735        -1.0000         8.9990        11.6723         0.1363        87.5518        11.5602        11.4240         0.0888        72.8857
      1305.2000        10.8539        -5.9728         1.0000         9.0108        11.6238         0.1312        92.1326        11.2686        10.8539         0.0857        73.1223
      1305.3250        10.1442        -5.6946         1.0000         9.0367        11.4751         0.1253        98.6414        10.8425        10.1436         0.0819        73.4362
      1305.4500         9.4158        -5.2884         1.0000         9.0608        10.9219         0.1187       106.3077        10.1970         9.4158         0.0774        73.8783
      1305.5750         8.5872        -4.7340         1.0000         9.0738         9.8888         0.1110       116.5971         9.2646         8.5872         0.0717        74.4684
      1305.7000         7.3469        -4.0759         1.0000         9.0680         8.3957         0.1017       136.1112         7.8948         7.3469         0.0642        75.1624
      1305.8250         5.4746        -3.3746         1.0000         9.1168         5.9646         0.0909       185.8969         5.7371         5.4727         0.0550        75.8997
      1305.9500         3.7040        -2.7612         1.0000         9.4988         3.8079         0.0810       277.5082         3.7609         3.7033         0.0469        76.5490
      1306.0750         2.5119        -2.2089         1.0000        10.2734         2.4893         0.0723       404.3736         2.4992         2.5119         0.0402        77.1368
      1306.2000         1.8857        -1.7934         1.0000        11.1914         1.8327         0.0643       530.3103         1.8559         1.8857         0.0344        77.5880
      1306.3250         1.6340        -1.3923         1.0000        11.7449         1.5923         0.0575       612.4996         1.6106         1.6338         0.0297        78.0250
      1306.4500         1.5410        -1.1801         1.0000        11.4266         1.5121         0.0510       649.0122         1.5249         1.5409         0.0256        78.2730
      1306.5750         1.5301        -1.1215         1.0000        10.7437         1.5193         0.0444       653.5452         1.5241         1.5301         0.0215        78.3673
      1306.7000         1.5506        -1.0670         1.0000        10.0818         1.5620         0.0382       644.9271         1.5569         1.5506         0.0176        78.4576
      1306.8250         1.5820        -1.0119         1.0000         9.9598         1.6076         0.0323       632.1595         1.5961         1.5820         0.0138        78.5486
