#----------------------------------------------------------------------------------
#
# APPLICATION : SAHARA 3.2.110
# DATE        : 04/07/2024 19:46:17
# PROJECT     : VH-III
#
#----------------------------------------------------------------------------------
~Version Information
VERS. 2.0 : CWLS LOG ASCII STANDARD - VERSION 2.0
WRAP.  NO : One line per depth step
~Well Information
#MNEMONIC   .UNIT                                           VALUE : DESCRIPTION
#----------------------------------------------------------------------------------
STRT        .M                                           313.4750 : START DEPTH
STOP        .M                                          1692.9750 : STOP DEPTH
STEP        .M                                           125.0000 : STEP
NULL        .                                           -999.2500 : NULL VALUE
COMP        .                                                     : COMPANY
WELL        .                                            PVH-1007 : WELL NAME
FLD         .                                                     : FIELD
LOC         .                                                     : LOCATION
PROV        .                                                     : PROVINCE
SRVC        .                                                     : SERVICE COMPANY
DATE        .                                                     : DATE
UWI         .                                          5420000089 : UNIQUE WELL ID
XCOORD      .                                        2539987.0400 : SURFACE X
YCOORD      .                                        4929711.0400 : SURFACE Y
ELEV        .M                                           417.7500 : SURFACE ELEV
~Curve Information
#MNEMONIC   .UNIT                       API CODES           CURVE : DESCRIPTION
#----------------------------------------------------------------------------------
DEPTH       .M                        00 000 00 00                : CURVE # 19
HMRS        .OHM.M                    00 000 00 00                : CURVE # 2
SPED        .MV                       00 000 00 00                : CURVE # 4
CALA        .                         00 000 00 00                : CURVE # 5
MBVIA       .FR.                      00 000 00 00                : CURVE # 6
HDCN        .                         00 000 00 00                : CURVE # 11
HT90        .OHM.M                    00 000 00 00                : CURVE # 12
MPHIA       .FR.                      00 000 00 00                : CURVE # 13
CILD        .                         00 000 00 00                : CURVE # 20
HDRS        .OHM.M                    00 000 00 00                : CURVE # 21
HT24        .OHM.M                    00 000 00 00                : CURVE # 22
LITHO_VHIII .                         00 000 00 00                : CURVE # 23
MFFIA       .FR.                      00 000 00 00                : CURVE # 24
SPB         .MV                       00 000 00 00                : CURVE # 25
~A        DEPTH           HMRS           SPED           CALA          MBVIA           HDCN           HT90          MPHIA           CILD           HDRS           HT24    LITHO_VHIII          MFFIA            SPB
# ...
       588.9750         1.6658        -0.8469         8.5560      -999.2500       578.5122         1.7286      -999.2500       578.5129         1.7286         1.6188         1.0000      -999.2500        79.8735
       589.1000         1.6630        -0.8591         8.5719      -999.2500       577.7244         1.7309      -999.2500       577.7341         1.7309         1.6125         1.0000      -999.2500        79.8565
       589.2250         1.6507        -0.8552         8.5855      -999.2500       580.9631         1.7212      -999.2500       580.9790         1.7213         1.5983         1.0000      -999.2500        79.8557
       589.3500         1.6316        -0.8687         8.5656      -999.2500       586.9995         1.7036      -999.2500       587.0059         1.7036         1.5782         1.0000      -999.2500        79.8374
       589.4750         1.6089        -0.9022         8.5170      -999.2500       594.7430         1.6814      -999.2500       594.7383         1.6815         1.5552         1.0000      -999.2500        79.7991
       589.6000         1.5868        -0.9585         8.4531      -999.2500       603.0803         1.6582      -999.2500       603.0635         1.6582         1.5339         1.0000      -999.2500        79.7381
       589.7250         1.5708        -1.0081         8.3953      -999.2500       609.9078         1.6396      -999.2500       609.9008         1.6396         1.5197         1.0000      -999.2500        79.6837
       589.8500         1.5626        -1.0444         8.3642      -999.2500       614.0321         1.6286      -999.2500       614.0260         1.6286         1.5136         1.0000      -999.2500        79.6428
       589.9750         1.5605        -1.0746         8.3529      -999.2500       615.4008         1.6249      -999.2500       615.4131         1.6249         1.5125         1.0000      -999.2500        79.6078
       590.1000         1.5607        -1.1035         8.3765      -999.2500       615.4543         1.6248      -999.2500       615.4604         1.6248         1.5130         1.0000      -999.2500        79.5742
       590.2250         1.5606        -1.1256         8.4323      -999.2500       615.8806         1.6237      -999.2500       615.8679         1.6237         1.5136         1.0000      -999.2500        79.5473
       590.3500         1.5601        -1.1225         8.4962      -999.2500       616.4493         1.6222      -999.2500       616.4469         1.6222         1.5139         1.0000      -999.2500        79.5457
       590.4750         1.5611        -1.1092         8.5775      -999.2500       616.1830         1.6229      -999.2500       616.1716         1.6229         1.5150         1.0000      -999.2500        79.5542
       590.6000         1.5667        -1.1255         8.5841      -999.2500       614.2827         1.6279      -999.2500       614.2883         1.6279         1.5209         1.0000      -999.2500        79.5332
       590.7250         1.5815        -1.1463         8.5785      -999.2500       609.7072         1.6402      -999.2500       609.7075         1.6401         1.5375         1.0000      -999.2500        79.5077
       590.8500         1.6029        -1.1445         8.5605      -999.2500       603.3806         1.6574      -999.2500       603.3850         1.6574         1.5618         1.0000      -999.2500        79.5047
       590.9750         1.6239        -1.1186         8.5963      -999.2500       597.0859         1.6748      -999.2500       597.1022         1.6748         1.5853         1.0000      -999.2500        79.5259
       591.1000         1.6390        -1.0808         8.7126      -999.2500       592.5531         1.6876      -999.2500       592.5575         1.6876         1.6021         1.0000      -999.2500        79.5590
       591.2250         1.6493        -1.0696         8.7908      -999.2500       589.6333         1.6960      -999.2500       589.6244         1.6960         1.6138         1.0000      -999.2500        79.5654
       591.3500         1.6594        -1.0477         8.8335      -999.2500       586.6631         1.7046      -999.2500       586.6675         1.7046         1.6249         1.0000      -999.2500        79.5826
       591.4750         1.6644        -1.0339         8.8307      -999.2500       585.1260         1.7091      -999.2500       585.1204         1.7091         1.6304         1.0000      -999.2500        79.5917
       591.6000         1.6542        -1.0307         8.8360      -999.2500       588.6010         1.6989      -999.2500       588.6161         1.6989         1.6200         1.0000      -999.2500        79.5901
       591.7250         1.6207        -1.0722         8.8151      -999.2500       600.4567         1.6655      -999.2500       600.4525         1.6655         1.5865         1.0000      -999.2500        79.5438
       591.8500         1.5756        -1.1246         8.7457      -999.2500       617.4435         1.6198      -999.2500       617.4497         1.6198         1.5419         1.0000      -999.2500        79.4868
       591.9750         1.5294        -1.2009         8.6365      -999.2500       636.0535         1.5723      -999.2500       636.0672         1.5723         1.4966         1.0000      -999.2500        79.4058
       592.1000         1.4889        -1.2878         8.5413      -999.2500       653.1625         1.5310      -999.2500       653.1678         1.5310         1.4568         1.0000      -999.2500        79.3141
       592.2250         1.4597        -1.3574         8.5183      -999.2500       665.7155         1.5022      -999.2500       665.7060         1.5022         1.4275         1.0000      -999.2500        79.2397
       592.3500         1.4425        -1.4309         8.5288      -999.2500       673.4375         1.4849      -999.2500       673.4528         1.4849         1.4102         1.0000      -999.2500        79.1615
       592.4750         1.4363        -1.5066         8.5195      -999.2500       676.5146         1.4782      -999.2500       676.5103         1.4782         1.4044         1.0000      -999.2500        79.0811
       592.6000         1.4380        -1.5555         8.4704      -999.2500       676.2023         1.4788      -999.2500       676.2239         1.4788         1.4068         1.0000      -999.2500        79.0274
       592.7250         1.4451        -1.5530         8.4506      -999.2500       673.1786         1.4855      -999.2500       673.1661         1.4855         1.4143         1.0000      -999.2500        79.0252
       592.8500         1.4571        -1.5331         8.4370      -999.2500       667.6063         1.4979      -999.2500       667.6143         1.4979         1.4261         1.0000      -999.2500        79.0404
       592.9750         1.4767        -1.5013         8.4202      -999.2500       658.2966         1.5191      -999.2500       658.2941         1.5191         1.4445         1.0000      -999.2500        79.0675
       593.1000         1.5044        -1.4173         8.4090      -999.2500       645.0882         1.5502      -999.2500       645.0781         1.5502         1.4697         1.0000      -999.2500        79.1467
       593.2250         1.5346        -1.2666         8.3753      -999.2500       631.1818         1.5844      -999.2500       631.1932         1.5844         1.4970         1.0000      -999.2500        79.2927
       593.3500         1.5579        -1.1051         8.3455      -999.2500       620.6742         1.6112      -999.2500       620.6707         1.6112         1.5177         1.0000      -999.2500        79.4493
       593.4750         1.5687        -0.9678         8.3159      -999.2500       615.9277         1.6236      -999.2500       615.9357         1.6235         1.5274         1.0000      -999.2500        79.5819
       593.6000         1.5667        -0.8545         8.2873      -999.2500       616.7224         1.6215      -999.2500       616.7129         1.6215         1.5255         1.0000      -999.2500        79.6905
