#----------------------------------------------------------------------------------
#
# APPLICATION : SAHARA 3.2.110
# DATE        : 04/07/2024 19:46:17
# PROJECT     : VH-III
#
#----------------------------------------------------------------------------------
~Version Information
VERS. 2.0 : CWLS LOG ASCII STANDARD - VERSION 2.0
WRAP.  NO : One line per depth step
~Well Information
#MNEMONIC   .UNIT                                           VALUE : DESCRIPTION
#----------------------------------------------------------------------------------
STRT        .M                                           313.4750 : START DEPTH
STOP        .M                                          1692.9750 : STOP DEPTH
STEP        .M                                           125.0000 : STEP
NULL        .                                           -999.2500 : NULL VALUE
COMP        .                                                     : COMPANY
WELL        .                                            PVH-1007 : WELL NAME
FLD         .                                                     : FIELD
LOC         .                                                     : LOCATION
PROV        .                                                     : PROVINCE
SRVC        .                                                     : SERVICE COMPANY
DATE        .                                                     : DATE
UWI         .                                          5420000089 : UNIQUE WELL ID
XCOORD      .                                        2539987.0400 : SURFACE X
YCOORD      .                                        4929711.0400 : SURFACE Y
ELEV        .M                                           417.7500 : SURFACE ELEV
~Curve Information
#MNEMONIC   .UNIT                       API CODES           CURVE : DESCRIPTION
#----------------------------------------------------------------------------------
DEPTH       .M                        00 000 00 00                : CURVE # 19
HMRS        .OHM.M                    00 000 00 00                : CURVE # 2
SPED        .MV                       00 000 00 00                : CURVE # 4
CALA        .                         00 000 00 00                : CURVE # 5
MBVIA       .FR.                      00 000 00 00                : CURVE # 6
HDCN        .                         00 000 00 00                : CURVE # 11
HT90        .OHM.M                    00 000 00 00                : CURVE # 12
MPHIA       .FR.                      00 000 00 00                : CURVE # 13
CILD        .                         00 000 00 00                : CURVE # 20
HDRS        .OHM.M                    00 000 00 00                : CURVE # 21
HT24        .OHM.M                    00 000 00 00                : CURVE # 22
LITHO_VHIII .                         00 000 00 00                : CURVE # 23
MFFIA       .FR.                      00 000 00 00                : CURVE # 24
SPB         .MV                       00 000 00 00                : CURVE # 25
~A        DEPTH           HMRS           SPED           CALA          MBVIA           HDCN           HT90          MPHIA           CILD           HDRS           HT24    LITHO_VHIII          MFFIA            SPB
# ...
      1044.9750         1.9055        -0.9362         8.8009         0.0093       528.1448         1.8935         0.0142       528.1563         1.8936         1.9151         1.0000         0.0049        80.1142
      1045.1000         1.8477        -0.9467         8.8173         0.0137       542.5670         1.8431         0.0181       542.5641         1.8431         1.8514         1.0000         0.0044        80.1142
      1045.2250         1.7942        -0.9672         8.8163         0.0219       557.7391         1.7931         0.0257       557.7299         1.7931         1.7952         1.0000         0.0037        80.1041
      1045.3500         1.7731        -1.1531         8.8870         0.0324       565.0400         1.7698         0.0355       565.0519         1.7698         1.7756         1.0000         0.0031        79.9286
      1045.4750         1.8352        -1.4633         9.0185         0.0432       546.2812         1.8313         0.0460       546.2858         1.8312         1.8385         1.0000         0.0028        79.6287
      1045.6000         2.0280        -1.8456         9.0264         0.0539       492.7347         2.0295         0.0566       492.7322         2.0295         2.0268         1.0000         0.0027        79.2568
      1045.7250         2.3676        -2.2279         8.9151         0.0655       419.8175         2.3898         0.0681       419.8193         2.3898         2.3502         1.0000         0.0027        78.8849
      1045.8500         2.7169        -2.6701         8.7491         0.0779       362.0638         2.7686         0.0804       362.0659         2.7685         2.6772         1.0000         0.0025        78.4531
      1045.9750         2.9390        -3.1727         8.7098         0.0899       331.7185         3.0162         0.0924       331.7185         3.0160         2.8802         1.0000         0.0024        77.9609
      1046.1000         3.0233        -3.7994         8.7140         0.1002       321.3769         3.1116         0.1028       321.3781         3.1116         2.9561         1.0000         0.0027        77.3446
      1046.2250         3.1004        -4.5891         8.7185         0.1087       314.0334         3.1851         0.1119       314.0310         3.1851         3.0358         1.0000         0.0032        76.5653
      1046.3500         3.2831        -5.3288         8.7050         0.1165       297.2177         3.3676         0.1204       297.2197         3.3675         3.2186         1.0000         0.0040        75.8359
      1046.4750         3.5779        -5.9229         8.6712         0.1218       273.3108         3.6627         0.1270       273.3132         3.6624         3.5133         1.0000         0.0052        75.2522
      1046.6000         3.8780        -6.3167         8.6341         0.1237       253.2185         3.9492         0.1310       253.2159         3.9492         3.8229        -1.0000         0.0072        74.8689
      1046.7250         3.9743        -6.6710         8.6259         0.1242       247.7162         4.0370         0.1342       247.7135         4.0370         3.9256        -1.0000         0.0100        74.5250
      1046.8500         3.8917        -6.8996         8.6368         0.1272       251.3346         3.9791         0.1404       251.3328         3.9791         3.8245         1.0000         0.0132        74.3068
      1046.9750         3.7775        -6.8799         8.6622         0.1325       255.8151         3.9091         0.1494       255.8146         3.9092         3.6784         1.0000         0.0168        74.3368
      1047.1000         3.7708        -6.9831         8.6881         0.1372       253.7249         3.9413         0.1585       253.7234         3.9413         3.6446         1.0000         0.0213        74.2440
      1047.2250         4.0306        -7.2747         8.6996         0.1398       236.6204         4.2330         0.1665       236.6194         4.2330         3.8821         1.0000         0.0267        73.9628
      1047.3500         4.6045        -7.7997         8.6609         0.1409       207.1651         4.8478         0.1725       207.1659         4.8474         4.4274        -1.0000         0.0316        73.4483
      1047.4750         5.4279        -8.4192         8.6098         0.1402       175.7647         5.7090         0.1737       175.7642         5.7081         5.2236        -1.0000         0.0335        72.8392
      1047.6000         6.1534        -8.7500         8.5633         0.1364       155.8976         6.4145         0.1684       155.8968         6.4145         5.9594        -1.0000         0.0319        72.5187
      1047.7250         6.2132        -8.6234         8.5713         0.1292       157.1228         6.3693         0.1581       157.1231         6.3693         6.0941        -1.0000         0.0289        72.6556
      1047.8500         5.6659        -7.9445         8.6193         0.1183       175.7062         5.7130         0.1449       175.7054         5.7134         5.6283        -1.0000         0.0266        73.3449
      1047.9750         4.7169        -6.7082         8.6687         0.1032       213.4898         4.7102         0.1283       213.4892         4.7112         4.7206        -1.0000         0.0251        74.5917
      1048.1000         3.6666        -5.2424         8.7186         0.0870       273.4015         3.6576         0.1103       273.4033         3.6576         3.6737         1.0000         0.0234        76.0679
      1048.2250         2.8667        -3.6681         8.8931         0.0743       351.4585         2.8614         0.0946       351.4594         2.8614         2.8708         1.0000         0.0203        77.6526
      1048.3500         2.3565        -2.2484         9.1734         0.0647       426.7441         2.3530         0.0807       426.7393         2.3532         2.3589         1.0000         0.0160        79.0826
      1048.4750         2.0606        -1.2584         9.3085         0.0550       485.7645         2.0614         0.0668       485.7563         2.0616         2.0595         1.0000         0.0117        80.0831
      1048.6000         1.8924        -0.7226         9.2746         0.0436       525.9406         1.9014         0.0522       525.9283         1.9014         1.8853         1.0000         0.0086        80.6292
      1048.7250         1.7922        -0.5742         9.1056         0.0308       552.6991         1.8097         0.0374       552.6989         1.8097         1.7784         1.0000         0.0066        80.7881
      1048.8500         1.7092        -0.5846         9.1726         0.0203       577.3969         1.7324         0.0251       577.4042         1.7324         1.6910         1.0000         0.0049        80.7881
      1048.9750         1.6304        -0.6511         9.2584         0.0118       604.3740         1.6549         0.0155       604.3877         1.6550         1.6110         1.0000         0.0037        80.7319
      1049.1000         1.5621        -0.7189         9.4116         0.0057       630.7924         1.5853         0.0092       630.7955         1.5853         1.5440         1.0000         0.0035        80.6745
      1049.2250         1.5269        -0.7673         9.5783         0.0040       645.7366         1.5486         0.0087       645.7301         1.5486         1.5100         1.0000         0.0047        80.6364
      1049.3500         1.5285        -0.8225         9.5322         0.0073       645.4959         1.5493         0.0146       645.4863         1.5493         1.5122         1.0000         0.0073        80.5917
      1049.4750         1.5575        -0.9658         9.3931         0.0139       633.5331         1.5786         0.0248       633.5240         1.5786         1.5412         1.0000         0.0109        80.4588
      1049.6000         1.6051        -1.3614         9.1052         0.0221       615.6266         1.6244         0.0369       615.6119         1.6244         1.5901         1.0000         0.0148        80.0736
