#----------------------------------------------------------------------------------
#
# APPLICATION : SAHARA 3.2.110
# DATE        : 04/07/2024 19:46:15
# PROJECT     : VH-III
#
#----------------------------------------------------------------------------------
~Version Information
VERS. 2.0 : CWLS LOG ASCII STANDARD - VERSION 2.0
WRAP.  NO : One line per depth step
~Well Information
#MNEMONIC   .UNIT                                           VALUE : DESCRIPTION
#----------------------------------------------------------------------------------
STRT        .M                                           200.0000 : START DEPTH
STOP        .M                                          1624.7500 : STOP DEPTH
STEP        .M                                           125.0000 : STEP
NULL        .                                           -999.2500 : NULL VALUE
COMP        .                                                     : COMPANY
WELL        .                                             PVH-941 : WELL NAME
FLD         .                                                     : FIELD
LOC         .                                                     : LOCATION
PROV        .                                                     : PROVINCE
SRVC        .                                                     : SERVICE COMPANY
DATE        .                                                     : DATE
UWI         .                                          5420002501 : UNIQUE WELL ID
XCOORD      .                                        2539607.2000 : SURFACE X
YCOORD      .                                        4929727.3600 : SURFACE Y
ELEV        .M                                           399.3400 : SURFACE ELEV
~Curve Information
#MNEMONIC   .UNIT                       API CODES           CURVE : DESCRIPTION
#----------------------------------------------------------------------------------
DEPTH       .M                        00 000 00 00                : CURVE # 19
DT          .US/FT                    00 000 00 00                : CURVE # 2
RHOB        .                         00 000 00 00                : CURVE # 3
BS          .                         00 000 00 00                : CURVE # 6
MBVIA       .FR.                      00 000 00 00                : CURVE # 7
CILD        .                         00 000 00 00                : CURVE # 10
HDRS        .OHM.M                    00 000 00 00                : CURVE # 11
MPHIA       .FR.                      00 000 00 00                : CURVE # 12
SPED        .MV                       00 000 00 00                : CURVE # 13
CALA        .                         00 000 00 00                : CURVE # 20
DPHI        .FR.                      00 000 00 00                : CURVE # 21
HDCN        .                         00 000 00 00                : CURVE # 22
LITHO_VHIII .                         00 000 00 00                : CURVE # 23
MFFIA       .FR.                      00 000 00 00                : CURVE # 24
PE          .                         00 000 00 00                : CURVE # 25
SPB         .MV                       00 000 00 00                : CURVE # 26
SPHI        .FR.                      00 000 00 00                : CURVE # 27
~A        DEPTH             DT           RHOB             BS          MBVIA           CILD           HDRS          MPHIA           SPED           CALA           DPHI           HDCN    LITHO_VHIII          MFFIA             PE            SPB           SPHI
# ...
      1436.0000        98.2180         2.3117         8.5000         0.0015       411.2518         2.4316         0.0043        -0.5082         8.8530         0.2050       411.2556         1.0000         0.0028         2.8329        80.8400         0.3347
      1436.1250        98.1084         2.3161         8.5000         0.0054       428.0092         2.3367         0.0076        -0.4332         8.8872         0.2024       428.0080         1.0000         0.0021         2.8412        80.9088         0.3422
      1436.2500        99.3980         2.3173         8.5000         0.0130       435.7962         2.2947         0.0143        -0.5923         8.9157         0.2016       435.7964         1.0000         0.0014         2.8591        80.7434         0.3429
      1436.3750       100.1478         2.3171         8.5000         0.0206       427.8275         2.3377         0.0212        -0.8332         8.9442         0.2017       427.8239         1.0000         0.0006         2.8662        80.4963         0.3376
      1436.5000       100.8980         2.3200         8.5000         0.0244       411.1842         2.4320         0.0245        -1.0483         8.9784         0.2000       411.1874         1.0000         0.0001         2.8627        80.2749         0.3292
      1436.6250       101.6732         2.3227         8.5000         0.0216       401.2161         2.4924         0.0218        -1.0433         8.9527         0.1983       401.2128         1.0000         0.0002         2.8877        80.2737         0.3181
      1436.7500       102.3880         2.3244         8.5000         0.0153       402.3231         2.4856         0.0159        -1.0668         8.9613         0.1973       402.3228         1.0000         0.0006         2.8524        80.2439         0.3108
      1436.8750       103.0128         2.3272         8.5000         0.0079       408.0282         2.4509         0.0091        -1.1675         8.9997         0.1956       408.0229         1.0000         0.0012         2.8098        80.1370         0.3121
      1437.0000       103.6980         2.3247         8.5000         0.0036       413.3427         2.4193         0.0052        -1.4455         9.0011         0.1972       413.3432         1.0000         0.0016         2.7583        79.8527         0.3224
      1437.1250       103.6980         2.3175         8.5000         0.0049       420.8278         2.3764         0.0065        -1.7591         9.0068         0.2015       420.8296         1.0000         0.0015         2.7095        79.5328         0.3362
      1437.2500       103.6380         2.3074         8.5000         0.0094       431.9257         2.3155         0.0105        -2.0841         8.9812         0.2076       431.9258         1.0000         0.0011         2.6855        79.2016         0.3482
      1437.3750       103.0982         2.2922         8.5000         0.0129       442.9890         2.2575         0.0137        -2.3235         8.9428         0.2168       442.9886         1.0000         0.0008         2.6573        78.9559         0.3566
      1437.5000       103.6570         2.2813         8.5000         0.0142       448.3501         2.2304         0.0149        -2.4313         8.9442         0.2234       448.3512         1.0000         0.0007         2.6397        78.8418         0.3610
      1437.6250       104.2409         2.2683         8.5000         0.0134       448.5454         2.2294         0.0144        -2.3620         8.9798         0.2314       448.5502         1.0000         0.0009         2.6009        78.9049         0.3582
      1437.7500       104.8240         2.2463         8.5000         0.0129       459.5389         2.1769         0.0137        -2.0356         8.9954         0.2447       459.5363         1.0000         0.0008         2.5818        79.2250         0.3533
      1437.8750       106.1366         2.2209         8.5000         0.0133       498.7487         2.0076         0.0138        -1.5202         8.9726         0.2601       498.7487         1.0000         0.0005         2.5631        79.7341         0.3539
      1438.0000       106.9170         2.2098         8.5000         0.0142       566.8613         1.7641         0.0144        -1.0620         8.9442         0.2668       566.8559         1.0000         0.0002         2.5794        80.1861         0.3665
      1438.1250       107.0913         2.2174         8.5000         0.0152       627.8888         1.5930         0.0153        -0.9112         8.9143         0.2621       627.9054         1.0000         0.0001         2.6072        80.3307         0.3812
      1438.2500       104.2670         2.2328         8.5000         0.0155       632.4870         1.5816         0.0157        -1.1917         8.8729         0.2528       632.4915         1.0000         0.0002         2.6312        80.0439         0.3876
      1438.3750       101.4427         2.2620         8.5000         0.0155       579.5765         1.7281         0.0160        -1.6998         8.8487         0.2351       579.5860         1.0000         0.0004         2.6518        79.5295         0.3860
      1438.5000        98.6170         2.2978         8.5000         0.0160       501.7561         1.9930         0.0167        -2.2309         8.8416         0.2135       501.7473         1.0000         0.0007         2.7145        78.9922         0.3780
      1438.6250        95.7913         2.3166         8.5000         0.0181       435.4483         2.3003         0.0188        -2.3931         8.7931         0.2020       435.4542         1.0000         0.0007         2.7660        78.8237         0.3563
      1438.7500        92.9670         2.3144         8.5000         0.0212       392.1075         2.5532         0.0216        -2.0781         8.7732         0.2034       392.1134         1.0000         0.0004         2.7815        79.1325         0.3352
      1438.8750        90.1427         2.3124         8.5000         0.0233       363.7666         2.7506         0.0236        -1.7456         8.7576         0.2046       363.7637         1.0000         0.0003         2.8189        79.4587         0.3225
      1439.0000        87.3170         2.3254         8.5000         0.0233       337.2795         2.9649         0.0240        -1.4790         8.7619         0.1967       337.2772         1.0000         0.0007         2.9167        79.7191         0.3123
      1439.1250        84.4911         2.3656         8.5000         0.0212       298.9416         3.3561         0.0228        -1.6654         8.7946         0.1723       298.9422         1.0000         0.0016         2.9912        79.5264         0.2850
      1439.2500        81.6660         2.4092         8.5000         0.0189       249.7717         4.0310         0.0212        -1.8147         8.8445         0.1460       249.7706         1.0000         0.0023         3.0458        79.3709         0.2405
      1439.3750        78.8417         2.4346         8.5000         0.0166       205.3073         4.8912         0.0193        -1.7282         8.8858         0.1306       205.3057        -1.0000         0.0027         3.0690        79.4511         0.1921
      1439.5000        75.9760         2.4354         8.5000         0.0149       187.6983         5.3277         0.0176        -1.4702         8.9157         0.1301       187.6969         1.0000         0.0027         3.0468        79.7029         0.1583
      1439.6250        77.2676         2.4055         8.5000         0.0133       214.0040         4.6956         0.0158        -1.2006         8.9271         0.1482       214.0041         1.0000         0.0025         3.0282        79.9661         0.1543
      1439.7500        83.9160         2.3575         8.5000         0.0117       260.2108         3.8643         0.0139        -1.1455         8.9442         0.1772       260.2109         1.0000         0.0023         2.9682        80.0150         0.1733
      1439.8750        90.5644         2.3260         8.5000         0.0094       301.5788         3.3221         0.0113        -1.2020         8.9570         0.1964       301.5756         1.0000         0.0019         2.8794        79.9523         0.2114
