#----------------------------------------------------------------------------------
#
# APPLICATION : SAHARA 3.2.110
# DATE        : 04/07/2024 19:46:19
# PROJECT     : VH-III
#
#----------------------------------------------------------------------------------
~Version Information
VERS. 2.0 : CWLS LOG ASCII STANDARD - VERSION 2.0
WRAP.  NO : One line per depth step
~Well Information
#MNEMONIC   .UNIT                                           VALUE : DESCRIPTION
#----------------------------------------------------------------------------------
STRT        .M                                           283.2000 : START DEPTH
STOP        .M                                          1987.2000 : STOP DEPTH
STEP        .M                                           125.0000 : STEP
NULL        .                                           -999.2500 : NULL VALUE
COMP        .                                                     : COMPANY
WELL        .                                             PVH-937 : WELL NAME
FLD         .                                                     : FIELD
LOC         .                                                     : LOCATION
PROV        .                                                     : PROVINCE
SRVC        .                                                     : SERVICE COMPANY
DATE        .                                                     : DATE
UWI         .                                          5420001652 : UNIQUE WELL ID
XCOORD      .                                        2539513.9200 : SURFACE X
YCOORD      .                                        4929943.0400 : SURFACE Y
ELEV        .M                                           388.2200 : SURFACE ELEV
~Curve Information
#MNEMONIC   .UNIT                       API CODES           CURVE : DESCRIPTION
#----------------------------------------------------------------------------------
DEPTH       .M                        00 000 00 00                : CURVE # 18
HDRS        .OHM.M                    00 000 00 00                : CURVE # 2
SPED        .MV                       00 000 00 00                : CURVE # 4
LITHO_VHIII .                         00 000 00 00                : CURVE # 5
CALA        .                         00 000 00 00                : CURVE # 10
HT24        .OHM.M                    00 000 00 00                : CURVE # 11
MPHIA       .FR.                      00 000 00 00                : CURVE # 12
HDCN        .                         00 000 00 00                : CURVE # 19
HMRS        .OHM.M                    00 000 00 00                : CURVE # 20
HT90        .OHM.M                    00 000 00 00                : CURVE # 21
MBVIA       .FR.                      00 000 00 00                : CURVE # 22
SPB         .MV                       00 000 00 00                : CURVE # 23
~A        DEPTH           HDRS           SPED    LITHO_VHIII           CALA           HT24          MPHIA           HDCN           HMRS           HT90          MBVIA            SPB
# ...
      1869.4500         2.8376        -1.8439         1.0000         8.6233         3.0578         0.0160       352.5616         2.9558         2.8377         0.0104        79.0080
      1869.5750         2.9114        -1.7633         1.0000         8.6266         3.0916         0.0146       343.4790         3.0088         2.9114         0.0091        79.0839
      1869.7000         2.7429        -1.6977         1.0000         8.6385         2.8425         0.0140       364.5746         2.7973         2.7429         0.0088        79.1448
      1869.8250         2.3977        -1.5255         1.0000         8.6332         2.4475         0.0138       417.8877         2.4253         2.3975         0.0087        79.3124
      1869.9500         2.1550        -1.3685         1.0000         8.6101         2.1728         0.0140       464.4270         2.1649         2.1549         0.0089        79.4648
      1870.0750         2.0640        -1.1601         1.0000         8.5799         2.0570         0.0143       484.5233         2.0602         2.0640         0.0090        79.6686
      1870.2000         2.0566        -0.9353         1.0000         8.5671         2.0362         0.0143       486.2419         2.0452         2.0566         0.0091        79.8887
      1870.3250         2.0687        -0.7894         1.0000         8.5666         2.0601         0.0140       483.4079         2.0639         2.0687         0.0089        80.0300
      1870.4500         2.0889        -0.6670         1.0000         8.5663         2.1276         0.0137       478.7323         2.1102         2.0890         0.0086        80.1478
      1870.5750         2.1288        -0.6368         1.0000         8.5667         2.2239         0.0136       469.7800         2.1805         2.1288         0.0082        80.1733
      1870.7000         2.1768        -0.6326         1.0000         8.5689         2.2961         0.0137       459.3988         2.2415         2.1768         0.0077        80.1729
      1870.8250         2.2395        -0.6742         1.0000         8.5693         2.3193         0.0141       446.6322         2.2830         2.2395         0.0074        80.1267
      1870.9500         2.3751        -0.8018         1.0000         8.5692         2.3971         0.0149       421.4809         2.3872         2.3752         0.0077        79.9943
      1871.0750         2.6637        -0.9028        -1.0000         8.5660         2.6452         0.0160       376.2412         2.6534         2.6637         0.0085        79.8887
      1871.2000         3.1494        -0.9793        -1.0000         8.5613         3.0946         0.0178       317.5197         3.1187         3.1494         0.0103        79.8076
      1871.3250         3.7030        -0.9956        -1.0000         8.5587         3.6980         0.0213       270.5021         3.6999         3.7035         0.0150        79.7866
      1871.4500         4.0230        -1.0202        -1.0000         8.5599         4.0764         0.0258       248.6097         4.0524         4.0231         0.0215        79.7575
      1871.5750         3.9365        -0.9236         1.0000         8.5592         4.0735         0.0293       254.1322         4.0114         3.9365         0.0262        79.8494
      1871.7000         3.5901        -0.8531         1.0000         8.5555         3.7837         0.0302       278.5427         3.6952         3.5901         0.0269        79.9153
      1871.8250         3.2943        -0.8394         1.0000         8.5541         3.4790         0.0288       303.6676         3.3946         3.2941         0.0241        79.9244
      1871.9500         3.1690        -0.8911         1.0000         8.5606         3.3394         0.0268       315.5641         3.2615         3.1690         0.0209        79.8679
      1872.0750         3.2001        -0.9266         1.0000         8.5731         3.3637         0.0240       312.5165         3.2889         3.2001         0.0173        79.8279
      1872.2000         3.3005        -0.9893         1.0000         8.5833         3.4699         0.0209       302.9842         3.3925         3.3005         0.0137        79.7605
      1872.3250         3.3578        -0.9769         1.0000         8.5891         3.5569         0.0191       297.8121         3.4656         3.3579         0.0114        79.7682
      1872.4500         3.3663        -1.0753         1.0000         8.5919         3.5579         0.0184       297.0653         3.4702         3.3662         0.0105        79.6652
      1872.5750         3.3875        -1.0915         1.0000         8.5919         3.5400         0.0185       295.2053         3.4706         3.3875         0.0101        79.6444
      1872.7000         3.5380        -1.1038         1.0000         8.5932         3.6230         0.0190       282.6479         3.5847         3.5380         0.0098        79.6275
      1872.8250         3.9941        -1.1584         1.0000         8.5971         3.9998         0.0199       251.1193         3.9969         3.9947         0.0095        79.5683
      1872.9500         4.6903        -1.1897        -1.0000         8.5998         4.6131         0.0211       214.1164         4.6469         4.6907         0.0094        79.5323
      1873.0750         5.3851        -1.1862        -1.0000         8.6025         5.2504         0.0225       186.0350         5.3094         5.3851         0.0099        79.5312
      1873.2000         5.8161        -1.1333        -1.0000         8.6041         5.6680         0.0244       171.9352         5.7329         5.8161         0.0111        79.5794
      1873.3250         5.8802        -1.0211        -1.0000         8.6057         5.7981         0.0267       170.0638         5.8341         5.8802         0.0127        79.6871
      1873.4500         5.7629        -0.8119        -1.0000         8.6012         5.8125         0.0295       173.5521         5.7903         5.7629         0.0146        79.8917
      1873.5750         5.5091        -0.5143        -1.0000         8.5825         5.6878         0.0327       181.5797         5.6069         5.5091         0.0169        80.1845
      1873.7000         5.1476        -0.3453         1.0000         8.5546         5.4253         0.0366       194.2640         5.2983         5.1476         0.0198        80.3489
      1873.8250         4.7915        -0.1620         1.0000         8.5307         5.1080         0.0414       208.8023         4.9625         4.7912         0.0239        80.5276
      1873.9500         4.5514        -0.0648         1.0000         8.5168         4.8620         0.0466       219.7541         4.7189         4.5513         0.0286        80.6202
      1874.0750         4.5182        -0.1399         1.0000         8.5117         4.8243         0.0509       221.3280         4.6833         4.5182         0.0322        80.5405
      1874.2000         4.8039        -0.3859         1.0000         8.5025         5.1255         0.0535       208.1642         4.9774         4.8039         0.0343        80.2898
      1874.3250         5.6441        -0.7209         1.0000         8.4916         6.0345         0.0550       178.0885         5.8538         5.6453         0.0352        79.9501
      1874.4500         6.9918        -1.0200        -1.0000         8.4818         7.4832         0.0558       144.1478         7.2562         6.9926         0.0356        79.6462
      1874.5750         8.2653        -1.2169        -1.0000         8.4761         8.7677         0.0559       121.2557         8.5371         8.2653         0.0353        79.4449
      1874.7000         8.2286        -1.3207        -1.0000         8.4737         8.6490         0.0554       121.5272         8.4570         8.2286         0.0346        79.3364
      1874.8250         6.6201        -1.4347        -1.0000         8.4716         6.8821         0.0530       152.4064         6.7640         6.6184         0.0322        79.2178
      1874.9500         5.0721        -1.3601         1.0000         8.4680         5.2394         0.0487       199.2893         5.1640         5.0714         0.0281        79.2878
