#----------------------------------------------------------------------------------
#
# APPLICATION : SAHARA 3.2.110
# DATE        : 04/07/2024 19:46:19
# PROJECT     : VH-III
#
#----------------------------------------------------------------------------------
~Version Information
VERS. 2.0 : CWLS LOG ASCII STANDARD - VERSION 2.0
WRAP.  NO : One line per depth step
~Well Information
#MNEMONIC   .UNIT                                           VALUE : DESCRIPTION
#----------------------------------------------------------------------------------
STRT        .M                                           283.2000 : START DEPTH
STOP        .M                                          1987.2000 : STOP DEPTH
STEP        .M                                           125.0000 : STEP
NULL        .                                           -999.2500 : NULL VALUE
COMP        .                                                     : COMPANY
WELL        .                                             PVH-937 : WELL NAME
FLD         .                                                     : FIELD
LOC         .                                                     : LOCATION
PROV        .                                                     : PROVINCE
SRVC        .                                                     : SERVICE COMPANY
DATE        .                                                     : DATE
UWI         .                                          5420001652 : UNIQUE WELL ID
XCOORD      .                                        2539513.9200 : SURFACE X
YCOORD      .                                        4929943.0400 : SURFACE Y
ELEV        .M                                           388.2200 : SURFACE ELEV
~Curve Information
#MNEMONIC   .UNIT                       API CODES           CURVE : DESCRIPTION
#----------------------------------------------------------------------------------
DEPTH       .M                        00 000 00 00                : CURVE # 18
HDRS        .OHM.M                    00 000 00 00                : CURVE # 2
SPED        .MV                       00 000 00 00                : CURVE # 4
LITHO_VHIII .                         00 000 00 00                : CURVE # 5
CALA        .                         00 000 00 00                : CURVE # 10
HT24        .OHM.M                    00 000 00 00                : CURVE # 11
MPHIA       .FR.                      00 000 00 00                : CURVE # 12
HDCN        .                         00 000 00 00                : CURVE # 19
HMRS        .OHM.M                    00 000 00 00                : CURVE # 20
HT90        .OHM.M                    00 000 00 00                : CURVE # 21
MBVIA       .FR.                      00 000 00 00                : CURVE # 22
SPB         .MV                       00 000 00 00                : CURVE # 23
~A        DEPTH           HDRS           SPED    LITHO_VHIII           CALA           HT24          MPHIA           HDCN           HMRS           HT90          MBVIA            SPB
# ...
      1644.4500         2.8346        -1.8749         1.0000         8.9760         2.9166         0.0084       353.3624         2.8795         2.8348         0.0041        79.0530
      1644.5750         2.9864        -1.7268         1.0000         8.9768         3.1477         0.0102       334.8741         3.0738         2.9864         0.0057        79.2010
      1644.7000         2.8801        -1.6511         1.0000         8.9679         3.0996         0.0132       347.2151         2.9980         2.8801         0.0086        79.2767
      1644.8250         2.7586        -1.6330         1.0000         8.9528         2.9583         0.0162       362.5054         2.8660         2.7586         0.0120        79.2948
      1644.9500         2.8583        -1.6366         1.0000         8.9250         3.0167         0.0191       350.2480         2.9441         2.8585         0.0156        79.2912
      1645.0750         3.2413        -1.6177         1.0000         8.9105         3.3407         0.0219       309.3775         3.2957         3.2413         0.0191        79.3101
      1645.2000         3.8116        -1.6576         1.0000         8.9033         3.7906         0.0247       262.3566         3.7999         3.8116         0.0222        79.2702
      1645.3250         4.0614        -1.8364         1.0000         8.9117         3.9165         0.0276       246.2768         3.9797         4.0612         0.0249        79.0914
      1645.4500         3.7395        -2.0382         1.0000         8.9084         3.5758         0.0301       268.3182         3.6469         3.7393         0.0271        78.8895
      1645.5750         3.1864        -2.2115         1.0000         8.9811         3.1002         0.0315       314.9249         3.1378         3.1864         0.0285        78.7163
      1645.7000         2.7612        -2.3205         1.0000         9.0352         2.7614         0.0321       362.1558         2.7613         2.7612         0.0292        78.6073
      1645.8250         2.5746        -2.4062         1.0000         9.0456         2.6336         0.0326       388.4605         2.6071         2.5745         0.0295        78.5216
      1645.9500         2.5365        -2.5246         1.0000         9.0144         2.6275         0.0332       394.2460         2.5862         2.5365         0.0297        78.4030
      1646.0750         2.6316        -2.6842         1.0000         8.9533         2.7276         0.0331       380.1207         2.6841         2.6316         0.0289        78.2435
      1646.2000         2.8795        -2.8137        -1.0000         8.9438         2.9467         0.0311       347.2789         2.9164         2.8795         0.0260        78.1141
      1646.3250         3.2336        -2.8885         1.0000         8.9148         3.2022         0.0266       309.5138         3.2158         3.2338         0.0204        78.0392
      1646.4500         3.3717        -2.9592         1.0000         8.9415         3.2495         0.0221       296.6047         3.3027         3.3717         0.0153        77.9686
      1646.5750         3.1199        -3.0196         1.0000         9.0896         2.9791         0.0192       321.0514         3.0401         3.1199         0.0125        77.9082
      1646.7000         2.6999        -3.1101         1.0000         9.2860         2.6090         0.0176       370.3822         2.6487         2.6999         0.0116        77.8177
      1646.8250         2.4149        -3.0386         1.0000         9.3231         2.3677         0.0161       414.3556         2.3884         2.4148         0.0108        77.8893
      1646.9500         2.2816        -2.8563         1.0000         9.2583         2.2850         0.0142       438.3714         2.2835         2.2815         0.0097        78.0715
      1647.0750         2.2550        -2.6699         1.0000         9.1328         2.3078         0.0125       443.4452         2.2840         2.2550         0.0087        78.2579
      1647.2000         2.2891        -2.4849         1.0000         9.0893         2.3853         0.0115       436.8590         2.3416         2.2891         0.0079        78.4429
      1647.3250         2.3504        -2.3361         1.0000         9.0211         2.4761         0.0108       425.5056         2.4186         2.3505         0.0073        78.5917
      1647.4500         2.4211        -2.2804         1.0000         8.9668         2.5597         0.0093       413.1008         2.4962         2.4212         0.0061        78.6475
      1647.5750         2.5058        -2.3230         1.0000         8.9608         2.6402         0.0067       399.1362         2.5788         2.5058         0.0042        78.6049
      1647.7000         2.5941        -2.4422         1.0000         8.9552         2.7187         0.0039       385.4850         2.6619         2.5941         0.0022        78.4856
      1647.8250         2.6481        -2.6052         1.0000         8.9163         2.7616         0.0026       377.6314         2.7099         2.6481         0.0012        78.3226
      1647.9500         2.6508        -2.7831         1.0000         8.9076         2.7516         0.0025       377.2553         2.7059         2.6507         0.0010        78.1446
      1648.0750         2.6168        -2.8545         1.0000         8.9275         2.7088         0.0029       382.1513         2.6672         2.6168         0.0012        78.0733
      1648.2000         2.5801        -2.8698         1.0000         8.9566         2.6636         0.0032       387.5840         2.6258         2.5801         0.0013        78.0580
      1648.3250         2.5592        -2.8817         1.0000         8.9502         2.6354         0.0034       390.7523         2.6010         2.5592         0.0012        78.0461
      1648.4500         2.5480        -2.7719         1.0000         8.9536         2.6322         0.0036       392.4651         2.5940         2.5480         0.0012        78.1559
      1648.5750         2.5494        -2.5247         1.0000         8.9659         2.6458         0.0045       392.2499         2.6020         2.5494         0.0016        78.4031
      1648.7000         2.5501        -2.2090         1.0000         8.9660         2.6477         0.0063       392.1396         2.6034         2.5501         0.0025        78.7188
      1648.8250         2.5196        -2.0206         1.0000         8.9607         2.6183         0.0084       396.9016         2.5735         2.5196         0.0036        78.9072
      1648.9500         2.4753        -1.9006         1.0000         8.9449         2.5788         0.0096       404.0161         2.5317         2.4752         0.0042        79.0273
      1649.0750         2.4412        -1.7271         1.0000         8.9483         2.5543         0.0101       409.6442         2.5028         2.4412         0.0044        79.2007
      1649.2000         2.4283        -1.5510         1.0000         8.9500         2.5526         0.0105       411.8164         2.4958         2.4283         0.0047        79.3768
      1649.3250         2.4663        -1.4371         1.0000         8.9424         2.6071         0.0119       405.5399         2.5425         2.4663         0.0057        79.4907
      1649.4500         2.5977        -1.5118         1.0000         8.9253         2.7592         0.0141       385.2912         2.6849         2.5977         0.0072        79.4159
      1649.5750         2.8751        -1.6318         1.0000         8.9119         3.0771         0.0168       348.4129         2.9839         2.8751         0.0092        79.2961
      1649.7000         3.3274        -1.7079         1.0000         8.9119         3.5326         0.0202       300.5388         3.4384         3.3274         0.0118        79.2199
      1649.8250         3.8597        -1.7780         1.0000         8.9191         4.0514         0.0243       259.5856         3.9636         3.8601         0.0153        79.1498
      1649.9500         4.3267        -1.8055         1.0000         8.9230         4.4617         0.0282       231.4642         4.4006         4.3270         0.0187        79.1222
