#----------------------------------------------------------------------------------
#
# APPLICATION : SAHARA 3.2.110
# DATE        : 04/07/2024 19:46:15
# PROJECT     : VH-III
#
#----------------------------------------------------------------------------------
~Version Information
VERS. 2.0 : CWLS LOG ASCII STANDARD - VERSION 2.0
WRAP.  NO : One line per depth step
~Well Information
#MNEMONIC   .UNIT                                           VALUE : DESCRIPTION
#----------------------------------------------------------------------------------
STRT        .M                                           200.0000 : START DEPTH
STOP        .M                                          1624.7500 : STOP DEPTH
STEP        .M                                           125.0000 : STEP
NULL        .                                           -999.2500 : NULL VALUE
COMP        .                                                     : COMPANY
WELL        .                                             PVH-941 : WELL NAME
FLD         .                                                     : FIELD
LOC         .                                                     : LOCATION
PROV        .                                                     : PROVINCE
SRVC        .                                                     : SERVICE COMPANY
DATE        .                                                     : DATE
UWI         .                                          5420002501 : UNIQUE WELL ID
XCOORD      .                                        2539607.2000 : SURFACE X
YCOORD      .                                        4929727.3600 : SURFACE Y
ELEV        .M                                           399.3400 : SURFACE ELEV
~Curve Information
#MNEMONIC   .UNIT                       API CODES           CURVE : DESCRIPTION
#----------------------------------------------------------------------------------
DEPTH       .M                        00 000 00 00                : CURVE # 19
DT          .US/FT                    00 000 00 00                : CURVE # 2
RHOB        .                         00 000 00 00                : CURVE # 3
BS          .                         00 000 00 00                : CURVE # 6
MBVIA       .FR.                      00 000 00 00                : CURVE # 7
CILD        .                         00 000 00 00                : CURVE # 10
HDRS        .OHM.M                    00 000 00 00                : CURVE # 11
MPHIA       .FR.                      00 000 00 00                : CURVE # 12
SPED        .MV                       00 000 00 00                : CURVE # 13
CALA        .                         00 000 00 00                : CURVE # 20
DPHI        .FR.                      00 000 00 00                : CURVE # 21
HDCN        .                         00 000 00 00                : CURVE # 22
LITHO_VHIII .                         00 000 00 00                : CURVE # 23
MFFIA       .FR.                      00 000 00 00                : CURVE # 24
PE          .                         00 000 00 00                : CURVE # 25
SPB         .MV                       00 000 00 00                : CURVE # 26
SPHI        .FR.                      00 000 00 00                : CURVE # 27
~A        DEPTH             DT           RHOB             BS          MBVIA           CILD           HDRS          MPHIA           SPED           CALA           DPHI           HDCN    LITHO_VHIII          MFFIA             PE            SPB           SPHI
# ...
      1256.0000       104.8090         2.3380         8.5000         0.0199       406.4875         2.4601         0.0431        -0.8517         8.8701         0.1891       406.4831         1.0000         0.0232         2.6037        80.9330         0.2624
      1256.1250       103.2671         2.3243         8.5000         0.0150       483.1645         2.0722         0.0340        -0.6698         8.8587         0.1974       483.1609         1.0000         0.0191         2.5663        81.1317         0.3111
      1256.2500       101.7255         2.3307         8.5000         0.0109       518.9592         1.9272         0.0263        -0.7423         8.8188         0.1935       518.9570         1.0000         0.0154         2.5319        81.0759         0.3525
      1256.3750       100.1839         2.3434         8.5000         0.0076       514.1577         1.9452         0.0198        -0.9778         8.8174         0.1858       514.1556         1.0000         0.0122         2.5210        80.8572         0.3646
      1256.5000        98.6420         2.3654         8.5000         0.0049       477.0764         2.0961         0.0139        -1.1590         8.8530         0.1725       477.0743         1.0000         0.0091         2.5237        80.6927         0.3495
      1256.6250        97.0994         2.3763         8.5000         0.0029       428.9456         2.3334         0.0093        -1.0999         8.9171         0.1659       428.9494         1.0000         0.0064         2.4453        80.7685         0.3250
      1256.7500        96.8960         2.3863         8.5000         0.0018       405.4119         2.4667         0.0063        -1.0552         8.9642         0.1599       405.4161         1.0000         0.0046         2.4175        80.8299         0.3128
      1256.8750        98.6988         2.3823         8.5000         0.0012       419.9560         2.3824         0.0045        -1.0920         9.0539         0.1622       419.9540         1.0000         0.0033         2.4113        80.8098         0.3065
      1257.0000       100.5020         2.3666         8.5000         0.0008       460.0451         2.1737         0.0033        -1.1860         9.1550         0.1718       460.0502         1.0000         0.0025         2.4247        80.7326         0.3078
      1257.1250       102.3059         2.3319         8.5000         0.0006       499.8279         2.0015         0.0028        -1.0670         9.1251         0.1928       499.8365         1.0000         0.0022         2.4137        80.8683         0.3226
      1257.2500       104.1085         2.3046         8.5000         0.0004       527.0236         1.8980         0.0026        -0.8682         9.1892         0.2093       527.0326         1.0000         0.0022         2.4107        81.0839         0.3450
      1257.3750       105.9111         2.2952         8.5000         0.0003       549.8021         1.8192         0.0026        -0.5898         9.2062         0.2150       549.8148         1.0000         0.0023         2.4285        81.3599         0.3593
      1257.5000       107.7150         2.2669         8.5000         0.0003       571.3633         1.7502         0.0026        -0.3160         9.1436         0.2322       571.3768         1.0000         0.0023         2.4823        81.6185         0.3675
      1257.6250       109.5182         2.2418         8.5000         0.0003       590.3307         1.6942         0.0026        -0.2266         9.2219         0.2473       590.3204         1.0000         0.0023         2.5471        81.6928         0.3769
      1257.7500       111.3210         2.2385         8.5000         0.0003       613.2197         1.6312         0.0027        -0.2971         9.2318         0.2494       613.2153         1.0000         0.0024         2.5862        81.6071         0.3927
      1257.8750       113.1238         2.2411         8.5000         0.0005       640.1318         1.5625         0.0031        -0.5221         9.1863         0.2478       640.1243         1.0000         0.0026         2.6083        81.3669         0.4110
      1258.0000       114.9270         2.2422         8.5000         0.0006       662.4271         1.5096         0.0035        -0.7986         9.2005         0.2471       662.4354         1.0000         0.0029         2.6542        81.0753         0.4285
      1258.1250       116.1560         2.2559         8.5000         0.0007       674.6501         1.4823         0.0038        -0.9949         9.1593         0.2388       674.6526         1.0000         0.0030         2.7263        80.8637         0.4408
      1258.2500       115.0880         2.2684         8.5000         0.0008       679.8113         1.4710         0.0037        -1.0771         9.1265         0.2313       679.8243         1.0000         0.0030         2.7897        80.7665         0.4496
      1258.3750       114.0208         2.2627         8.5000         0.0007       679.0588         1.4726         0.0037        -1.0991         9.1579         0.2347       679.0714         1.0000         0.0029         2.7733        80.7292         0.4524
      1258.5000       112.9520         2.2430         8.5000         0.0008       675.4931         1.4804         0.0040        -1.0468         9.2461         0.2467       675.4730         1.0000         0.0031         2.6922        80.7664         0.4472
      1258.6250       111.8840         2.2206         8.5000         0.0011       672.9587         1.4860         0.0049        -1.0689         9.3444         0.2603       672.9669         1.0000         0.0038         2.6448        80.7292         0.4381
      1258.7500       110.8160         2.2124         8.5000         0.0018       672.3141         1.4874         0.0068        -1.1024         9.4028         0.2652       672.3137         1.0000         0.0050         2.6210        80.6806         0.4284
      1258.8750       109.6888         2.2125         8.5000         0.0030       672.7557         1.4864         0.0101        -1.1015         9.4356         0.2652       672.7455         1.0000         0.0071         2.5893        80.6663         0.4167
      1259.0000       111.9230         2.1973         8.5000         0.0050       673.8545         1.4840         0.0151        -1.0950         9.4113         0.2744       673.8321         1.0000         0.0102         2.5366        80.6576         0.4066
      1259.1250       115.0078         2.1898         8.5000         0.0071       677.2266         1.4766         0.0205        -1.0841         9.4626         0.2789       677.2137         1.0000         0.0133         2.5712        80.6533         0.4109
      1259.2500       118.0920         2.1613         8.5000         0.0086       683.4734         1.4631         0.0242        -1.1876         9.6223         0.2962       683.4921         1.0000         0.0157         2.5946        80.5347         0.4327
      1259.3750       121.1762         2.1254         8.5000         0.0092       689.4970         1.4503         0.0264        -1.3598         9.8374         0.3180       689.4857         1.0000         0.0172         2.6038        80.3473         0.4637
      1259.5000       124.2620         2.1074         8.5000         0.0094       688.8476         1.4517         0.0276        -1.5090        10.0095         0.3289       688.8278         1.0000         0.0182         2.6141        80.1829         0.4956
      1259.6250       126.7300         2.0944         8.5000         0.0097       676.4794         1.4784         0.0284        -1.6254        10.0508         0.3367       676.4978         1.0000         0.0187         2.5990        80.0514         0.5181
      1259.7500       124.7150         2.1146         8.5000         0.0100       658.3019         1.5193         0.0290        -1.6817         9.9838         0.3245       658.3148         1.0000         0.0191         2.5964        79.9799         0.5289
      1259.8750       119.6787         2.1653         8.5000         0.0099       638.8095         1.5656         0.0288        -1.7294         9.8015         0.2938       638.8270         1.0000         0.0190         2.6645        79.9170         0.5238
