#----------------------------------------------------------------------------------
#
# APPLICATION : SAHARA 3.2.110
# DATE        : 04/07/2024 19:46:15
# PROJECT     : VH-III
#
#----------------------------------------------------------------------------------
~Version Information
VERS. 2.0 : CWLS LOG ASCII STANDARD - VERSION 2.0
WRAP.  NO : One line per depth step
~Well Information
#MNEMONIC   .UNIT                                           VALUE : DESCRIPTION
#----------------------------------------------------------------------------------
STRT        .M                                           200.0000 : START DEPTH
STOP        .M                                          1624.7500 : STOP DEPTH
STEP        .M                                           125.0000 : STEP
NULL        .                                           -999.2500 : NULL VALUE
COMP        .                                                     : COMPANY
WELL        .                                             PVH-941 : WELL NAME
FLD         .                                                     : FIELD
LOC         .                                                     : LOCATION
PROV        .                                                     : PROVINCE
SRVC        .                                                     : SERVICE COMPANY
DATE        .                                                     : DATE
UWI         .                                          5420002501 : UNIQUE WELL ID
XCOORD      .                                        2539607.2000 : SURFACE X
YCOORD      .                                        4929727.3600 : SURFACE Y
ELEV        .M                                           399.3400 : SURFACE ELEV
~Curve Information
#MNEMONIC   .UNIT                       API CODES           CURVE : DESCRIPTION
#----------------------------------------------------------------------------------
DEPTH       .M                        00 000 00 00                : CURVE # 19
DT          .US/FT                    00 000 00 00                : CURVE # 2
RHOB        .                         00 000 00 00                : CURVE # 3
BS          .                         00 000 00 00                : CURVE # 6
MBVIA       .FR.                      00 000 00 00                : CURVE # 7
CILD        .                         00 000 00 00                : CURVE # 10
HDRS        .OHM.M                    00 000 00 00                : CURVE # 11
MPHIA       .FR.                      00 000 00 00                : CURVE # 12
SPED        .MV                       00 000 00 00                : CURVE # 13
CALA        .                         00 000 00 00                : CURVE # 20
DPHI        .FR.                      00 000 00 00                : CURVE # 21
HDCN        .                         00 000 00 00                : CURVE # 22
LITHO_VHIII .                         00 000 00 00                : CURVE # 23
MFFIA       .FR.                      00 000 00 00                : CURVE # 24
PE          .                         00 000 00 00                : CURVE # 25
SPB         .MV                       00 000 00 00                : CURVE # 26
SPHI        .FR.                      00 000 00 00                : CURVE # 27
~A        DEPTH             DT           RHOB             BS          MBVIA           CILD           HDRS          MPHIA           SPED           CALA           DPHI           HDCN    LITHO_VHIII          MFFIA             PE            SPB           SPHI
# ...
      1616.0000        94.1000         2.3649         8.5000         0.0315       917.0106         1.0905         0.0507        -0.1873         7.8275         0.1728       917.0176         1.0000         0.0192         3.2666        62.9349         0.2886
      1616.1250        94.1000         2.3649         8.5000         0.0315      1011.4720         0.9897         0.0508        -0.2242         7.8275         0.1728      1011.4530         1.0000         0.0193         3.2666        62.9349         0.2886
      1616.2500        94.1000         2.3649         8.5000         0.0315      1108.0650         0.9036         0.0508        -0.2609         7.8275         0.1728      1108.0860         1.0000         0.0193         3.2666        62.9349         0.2886
      1616.3750        94.1000         2.3649         8.5000         0.0315      1208.5060         0.8282         0.0508        -0.2978         7.8275         0.1728      1208.5350         1.0000         0.0193         3.2666        62.9349         0.2886
      1616.5000        94.1000         2.3649         8.5000         0.0315      1313.3700         0.7614         0.0508        -0.3346         7.8275         0.1728      1313.3470         1.0000         0.0193         3.2666        62.9349         0.2886
      1616.6250        94.1000         2.3649         8.5000         0.0315      1424.0850         0.7028         0.0508        -0.3715         7.8275         0.1728      1424.1300         1.0000         0.0193         3.2666        62.9349         0.2886
      1616.7500        94.1000         2.3649         8.5000         0.0315      1544.2730         0.6482         0.0508        -0.4082         7.8275         0.1728      1544.2100         1.0000         0.0193         3.2666        62.9349         0.2886
      1616.8750        94.1000         2.3649         8.5000         0.0315      1664.8070         0.6010         0.0508        -0.4450         7.8275         0.1728      1664.7770         1.0000         0.0193         3.2666        62.9349         0.2886
      1617.0000        94.1000         2.3649         8.5000         0.0315      1745.5050         0.5729         0.0508        -0.4819         7.8275         0.1728      1745.5150         1.0000         0.0193         3.2666        62.9349         0.2886
      1617.1250        94.1000         2.3649         8.5000         0.0315      1557.2020         0.6536         0.0508        -0.5187         7.8275         0.1728      1557.2480         1.0000         0.0193         3.2666        62.9349         0.2886
      1617.2500        94.1000         2.3649         8.5000         0.0315       759.9803         2.1083         0.0508        -0.5555         7.8275         0.1728       759.9655         1.0000         0.0193         3.2666        62.9349         0.2886
      1617.3750        94.1000         2.3649         8.5000         0.0315       374.7461         2.7170         0.0508        -0.5923         7.8275         0.1728       374.7513         1.0000         0.0193         3.2666        62.9349         0.2886
      1617.5000        94.1000         2.3649         8.5000         0.0315      -999.2500      -999.2500         0.0508        -0.6292         7.8275         0.1728      -999.2500         1.0000         0.0193         3.2666        62.9349         0.2886
      1617.6250        94.1000         2.3649         8.5000         0.0315      -999.2500      -999.2500         0.0508        -0.6660         7.8275         0.1728      -999.2500         1.0000         0.0193         3.2666        62.9349         0.2886
      1617.7500        94.1000         2.3649         8.5000         0.0315      -999.2500      -999.2500         0.0508        -0.7028         7.8275         0.1728      -999.2500         1.0000         0.0193         3.2666        62.9349         0.2886
      1617.8750        94.1000         2.3649         8.5000         0.0315      -999.2500      -999.2500         0.0508        -0.7396         7.8275         0.1728      -999.2500         1.0000         0.0193         3.2666        62.9349         0.2886
      1618.0000        94.1000         2.3649         8.5000         0.0315      -999.2500      -999.2500         0.0508        -0.7764         7.8275         0.1728      -999.2500         1.0000         0.0193         3.2666        62.9349         0.2886
      1618.1250        94.1000         2.3649         8.5000         0.0315      -999.2500      -999.2500         0.0508        -0.8133         7.8275         0.1728      -999.2500         1.0000         0.0193         3.2666        62.9349         0.2886
      1618.2500        94.1000         2.3649         8.5000         0.0315      -999.2500      -999.2500         0.0508        -0.8501         7.8275         0.1728      -999.2500         1.0000         0.0193         3.2666        62.9349         0.2886
      1618.3750        94.1000         2.3649         8.5000         0.0315      -999.2500      -999.2500         0.0508        -0.8869         7.8275         0.1728      -999.2500         1.0000         0.0193         3.2666        62.9349         0.2886
      1618.5000        94.1000         2.3649         8.5000         0.0315      -999.2500      -999.2500         0.0508        -0.9237         7.8275         0.1728      -999.2500         1.0000         0.0193         3.2666        62.9349         0.2886
      1618.6250        94.1000         2.3649         8.5000         0.0315      -999.2500      -999.2500         0.0508        -0.9605         7.8275         0.1728      -999.2500         1.0000         0.0193         3.2666        62.9349         0.2886
      1618.7500        94.1000         2.3649         8.5000         0.0315      -999.2500      -999.2500         0.0508        -0.9826         7.8275         0.1728      -999.2500         1.0000         0.0193         3.2666        62.9349         0.2886
      1618.8750        94.1000         2.3649         8.5000         0.0315      -999.2500      -999.2500         0.0508        -0.9826         7.8275         0.1728      -999.2500         1.0000         0.0193         3.2666        62.9349         0.2886
      1619.0000        94.1000         2.3649         8.5000         0.0315      -999.2500      -999.2500         0.0508        -0.9826         7.8275         0.1728      -999.2500         1.0000         0.0193         3.2666        62.9349         0.2886
      1619.1250        94.1000         2.3649         8.5000         0.0315      -999.2500      -999.2500         0.0508        -0.9826         7.8275         0.1728      -999.2500         1.0000         0.0193         3.2666        62.9349         0.2886
      1619.2500        94.1000         2.3649         8.5000         0.0315      -999.2500      -999.2500         0.0508        -0.9826         7.8275         0.1728      -999.2500         1.0000         0.0193         3.2666        62.9349         0.2886
      1619.3750        94.1000         2.3649         8.5000         0.0315      -999.2500      -999.2500         0.0508        -0.9826         7.8275         0.1728      -999.2500         1.0000         0.0193         3.2666        62.9349         0.2886
      1619.5000        94.1000         2.3649         8.5000         0.0315      -999.2500      -999.2500         0.0508        -0.9826         7.8275         0.1728      -999.2500         1.0000         0.0193         3.2666        62.9349         0.2886
      1619.6250        94.1000         2.3649         8.5000         0.0315      -999.2500      -999.2500         0.0508        -0.9826         7.8275         0.1728      -999.2500         1.0000         0.0193         3.2666        62.9349         0.2886
      1619.7500        94.1000         2.3649         8.5000         0.0315      -999.2500      -999.2500         0.0508        -0.9826         7.8275         0.1728      -999.2500         1.0000         0.0193         3.2666        62.9349         0.2886
      1619.8750        94.1000         2.3649         8.5000      -999.2500      -999.2500      -999.2500      -999.2500        -0.9826         7.8275         0.1728      -999.2500         1.0000      -999.2500         3.2666        62.9349         0.2886
