#----------------------------------------------------------------------------------
#
# APPLICATION : SAHARA 3.2.110
# DATE        : 04/07/2024 19:46:15
# PROJECT     : VH-III
#
#----------------------------------------------------------------------------------
~Version Information
VERS. 2.0 : CWLS LOG ASCII STANDARD - VERSION 2.0
WRAP.  NO : One line per depth step
~Well Information
#MNEMONIC   .UNIT                                           VALUE : DESCRIPTION
#----------------------------------------------------------------------------------
STRT        .M                                           200.0000 : START DEPTH
STOP        .M                                          1624.7500 : STOP DEPTH
STEP        .M                                           125.0000 : STEP
NULL        .                                           -999.2500 : NULL VALUE
COMP        .                                                     : COMPANY
WELL        .                                             PVH-941 : WELL NAME
FLD         .                                                     : FIELD
LOC         .                                                     : LOCATION
PROV        .                                                     : PROVINCE
SRVC        .                                                     : SERVICE COMPANY
DATE        .                                                     : DATE
UWI         .                                          5420002501 : UNIQUE WELL ID
XCOORD      .                                        2539607.2000 : SURFACE X
YCOORD      .                                        4929727.3600 : SURFACE Y
ELEV        .M                                           399.3400 : SURFACE ELEV
~Curve Information
#MNEMONIC   .UNIT                       API CODES           CURVE : DESCRIPTION
#----------------------------------------------------------------------------------
DEPTH       .M                        00 000 00 00                : CURVE # 19
DT          .US/FT                    00 000 00 00                : CURVE # 2
RHOB        .                         00 000 00 00                : CURVE # 3
BS          .                         00 000 00 00                : CURVE # 6
MBVIA       .FR.                      00 000 00 00                : CURVE # 7
CILD        .                         00 000 00 00                : CURVE # 10
HDRS        .OHM.M                    00 000 00 00                : CURVE # 11
MPHIA       .FR.                      00 000 00 00                : CURVE # 12
SPED        .MV                       00 000 00 00                : CURVE # 13
CALA        .                         00 000 00 00                : CURVE # 20
DPHI        .FR.                      00 000 00 00                : CURVE # 21
HDCN        .                         00 000 00 00                : CURVE # 22
LITHO_VHIII .                         00 000 00 00                : CURVE # 23
MFFIA       .FR.                      00 000 00 00                : CURVE # 24
PE          .                         00 000 00 00                : CURVE # 25
SPB         .MV                       00 000 00 00                : CURVE # 26
SPHI        .FR.                      00 000 00 00                : CURVE # 27
~A        DEPTH             DT           RHOB             BS          MBVIA           CILD           HDRS          MPHIA           SPED           CALA           DPHI           HDCN    LITHO_VHIII          MFFIA             PE            SPB           SPHI
# ...
       896.0000       126.0020         2.1785         8.5000         0.0076       598.0861         1.6720         0.0236        -2.6441         9.3202         0.2858       598.0829         1.0000         0.0160         2.8593        78.9620         0.4793
       896.1250       129.7087         2.1607         8.5000         0.0083       621.2131         1.6100         0.0244        -2.3992         9.2390         0.2965       621.2225         1.0000         0.0161         2.8437        79.2408         0.5170
       896.2500       128.2580         2.1592         8.5000         0.0089       641.0403         1.5601         0.0248        -2.0570         9.1407         0.2974       641.0325         1.0000         0.0159         2.8153        79.6169         0.5554
       896.3750       119.1341         2.1775         8.5000         0.0095       654.9614         1.5269         0.0252        -1.7192         8.9698         0.2864       654.9547         1.0000         0.0157         2.8135        79.9886         0.5677
       896.5000       110.0870         2.2144         8.5000         0.0104       662.4271         1.5096         0.0262        -1.4242         8.8644         0.2640       662.4064         1.0000         0.0159         2.8620        80.3175         0.5374
       896.6250       111.2821         2.2430         8.5000         0.0118       660.1059         1.5149         0.0286        -1.2693         8.8217         0.2466       660.1157         1.0000         0.0168         2.8244        80.5063         0.4904
       896.7500       112.6365         2.2688         8.5000         0.0139       654.9012         1.5270         0.0320        -1.0744         8.7619         0.2310       654.9162         1.0000         0.0181         2.8164        80.7352         0.4473
       896.8750       114.4851         2.2749         8.5000         0.0174       659.0157         1.5174         0.0370        -1.0123         8.7362         0.2274       659.0189         1.0000         0.0197         2.7818        80.8311         0.4191
       897.0000       114.8460         2.2756         8.5000         0.0225       670.6908         1.4910         0.0440        -0.9247         8.7562         0.2269       670.6846         1.0000         0.0215         2.6989        80.9527         0.4076
       897.1250       110.3665         2.2721         8.5000         0.0285       669.3455         1.4941         0.0520        -0.9770         8.7334         0.2290       669.3484         1.0000         0.0235         2.6887        80.9343         0.4241
       897.2500       105.8875         2.2573         8.5000         0.0340       646.6417         1.5472         0.0597        -1.3580         8.6678         0.2380       646.6343         1.0000         0.0257         2.6127        80.5872         0.4357
       897.3750       101.4093         2.2385         8.5000         0.0394       594.6656         1.6838         0.0675        -2.3587         8.6279         0.2494       594.6550         1.0000         0.0281         2.5451        79.5627         0.4325
       897.5000        96.9290         2.2289         8.5000         0.0453       505.6890         1.9775         0.0755        -3.9585         8.5568         0.2552       505.6998         1.0000         0.0302         2.5198        77.9005         0.4027
       897.6250        93.5511         2.2290         8.5000         0.0555       386.3173         2.6231         0.0874        -5.7879         8.4998         0.2551       386.3164         1.0000         0.0319         2.5274        76.0088         0.3613
       897.7500        93.9760         2.2392         8.5000         0.0694       277.5298         3.6681         0.1027        -7.0978         8.4884         0.2490       277.5283         1.0000         0.0333         2.5348        74.6365         0.3227
       897.8750        94.6109         2.2514         8.5000         0.0802       209.5942         4.8030         0.1138        -7.6913         8.4984         0.2416       209.5947        -1.0000         0.0336         2.5542        73.9806         0.2990
       898.0000        95.3860         2.2685         8.5000         0.0806       186.6786         5.3568         0.1121        -7.9162         8.4941         0.2312       186.6791        -1.0000         0.0315         2.5512        73.6934         0.2851
       898.1250        95.9711         2.2780         8.5000         0.0705       193.6781         5.1658         0.0974        -7.6336         8.4784         0.2254       193.6779        -1.0000         0.0269         2.6346        73.9137         0.2838
       898.2500        96.0565         2.2895         8.5000         0.0609       206.6566         4.8422         0.0834        -7.2852         8.5369         0.2185       206.6569        -1.0000         0.0225         2.6576        74.1997         0.2936
       898.3750        95.3328         2.2888         8.5000         0.0544       219.7637         4.5523         0.0730        -6.6025         8.5696         0.2189       219.7657         1.0000         0.0187         2.7032        74.8200         0.3039
       898.5000        94.4290         2.2882         8.5000         0.0501       231.9863         4.3106         0.0655        -5.7739         8.6251         0.2193       231.9842         1.0000         0.0153         2.7967        75.5863         0.3077
       898.6250        93.5602         2.2965         8.5000         0.0477       240.0824         4.1654         0.0601        -5.1070         8.6850         0.2142       240.0834         1.0000         0.0124         2.8753        76.1908         0.3044
       898.7500        93.6710         2.3197         8.5000         0.0469       243.3524         4.1093         0.0566        -4.5484         8.6935         0.2001       243.3513         1.0000         0.0097         2.9312        76.6871         0.2965
       898.8750        94.7709         2.3428         8.5000         0.0469       246.2818         4.0605         0.0538        -4.0157         8.7149         0.1862       246.2818        -1.0000         0.0069         3.0132        77.1574         0.2862
       899.0000        95.8700         2.3553         8.5000         0.0461       257.6058         3.8819         0.0511        -3.5286         8.7334         0.1786       257.6076        -1.0000         0.0050         3.0783        77.5821         0.2836
       899.1250        96.8201         2.3575         8.5000         0.0436       284.3997         3.5215         0.0481        -3.1518         8.7063         0.1773       284.4000         1.0000         0.0045         3.0657        77.8967         0.2907
       899.2500        97.6800         2.3457         8.5000         0.0404       316.2168         3.1671         0.0452        -2.8633         8.7021         0.1844       316.2141         1.0000         0.0048         3.0205        78.1227         0.2967
       899.3750        98.4049         2.3373         8.5000         0.0378       340.5840         2.9374         0.0432        -2.6780         8.7149         0.1894       340.5833         1.0000         0.0054         2.9085        78.2457         0.3044
       899.5000        98.7110         2.3263         8.5000         0.0357       350.6680         2.8517         0.0422        -2.6154         8.7163         0.1962       350.6637         1.0000         0.0065         2.8532        78.2459         0.3162
       899.6250        98.2612         2.3242         8.5000         0.0344       349.6608         2.8599         0.0421        -2.6101         8.7405         0.1975       349.6619         1.0000         0.0076         2.8152        78.1889         0.3246
       899.7500        97.8790         2.3214         8.5000         0.0350       348.0561         2.8731         0.0432        -2.5363         8.7448         0.1992       348.0535         1.0000         0.0083         2.7705        78.2004         0.3250
       899.8750        97.5965         2.3139         8.5000         0.0374       348.3779         2.8704         0.0458        -2.3466         8.6978         0.2037       348.3789         1.0000         0.0084         2.7261        78.3277         0.3263
